stnid,name,lat,lon,ctry,state,begin,end,country_name,iso2c,iso3c,begin_year,end_year,stn,wban
690150-93121,TWENTY NINE PALMS,34.3,-116.167,US,CA,1/2/1990,1/8/2020,UNITED STATES,US,USA,1990,2020,690150,93121
700001-26492,PORTAGE GLACIER,60.785,-148.839,US,AK,1/1/2006,1/8/2020,UNITED STATES,US,USA,2006,2020,700001,26492
700197-26558,SELAWIK,66.6,-159.986,US,AK,1/1/2006,1/8/2020,UNITED STATES,US,USA,2006,2020,700197,26558
700260-27502,W POST-WILL ROGERS MEMORIAL AIRPORT,71.283,-156.782,US,AK,1/1/1945,1/8/2020,UNITED STATES,US,USA,1945,2020,700260,27502
700300-27503,WAINWRIGHT AIRPORT,70.639,-159.995,US,AK,11/2/1999,1/8/2020,UNITED STATES,US,USA,1999,2020,700300,27503
700632-26645,BUCKLAND AIRPORT,65.983,-161.133,US,AK,1/1/2006,1/8/2020,UNITED STATES,US,USA,2006,2020,700632,26645
700634-27408,UGNU-KUPRAUK AIRPORT,70.331,-149.598,US,AK,1/1/2006,1/8/2020,UNITED STATES,US,USA,2006,2020,700634,27408
700635-26465,GALBRAITH LAKE AIRPORT,68.479,-149.49,US,AK,1/5/2006,1/2/2020,UNITED STATES,US,USA,2006,2020,700635,26465
700637-27406,DEADHORSE AIRPORT,70.192,-148.477,US,AK,1/1/1973,1/8/2020,UNITED STATES,US,USA,1973,2020,700637,27406
700638-99999,FALSE PASS,54.85,-163.417,US,AK,1/1/1973,8/1/2019,UNITED STATES,US,USA,1973,2019,700638,99999
700860-27401,BARTER ISLAND AIRPORT,70.134,-143.577,US,AK,10/1/1947,1/8/2020,UNITED STATES,US,USA,1947,2020,700860,27401
701040-26631,CAPE LISBURNE LRRS AIRPORT,68.867,-166.133,US,AK,1/1/2006,1/8/2020,UNITED STATES,US,USA,2006,2020,701040,26631
701043-26623,POINT HOPE AIRPORT,68.35,-166.8,US,AK,1/1/2006,1/8/2020,UNITED STATES,US,USA,2006,2020,701043,26623
701045-26649,RED DOG AIRPORT,68.031,-162.903,US,AK,1/3/2006,1/7/2020,UNITED STATES,US,USA,2006,2020,701045,26649
701170-26634,TIN CITY LRRS AIRPORT,65.563,-167.921,US,AK,1/1/2006,1/8/2020,UNITED STATES,US,USA,2006,2020,701170,26634
701195-26625,SHISHMAREF/NEW AIRPORT,66.25,-166.089,US,AK,1/1/2006,1/8/2020,UNITED STATES,US,USA,2006,2020,701195,26625
701210-26624,POINT LAY LRRS AIRPORT,69.733,-163.005,US,AK,1/1/2006,1/8/2020,UNITED STATES,US,USA,2006,2020,701210,26624
701330-26616,RALPH WIEN MEMORIAL AIRPORT,66.867,-162.633,US,AK,1/1/1973,1/8/2020,UNITED STATES,US,USA,1973,2020,701330,26616
701333-26643,DEERING AIRPORT,66.069,-162.764,US,AK,1/2/1999,1/8/2020,UNITED STATES,US,USA,1999,2020,701333,26643
701335-26648,NOATAK AIRPORT,67.566,-162.975,US,AK,1/1/2006,1/8/2020,UNITED STATES,US,USA,2006,2020,701335,26648
701338-99999,CHEVAK AIRPORT,61.533,-165.583,US,AK,2/10/2009,1/7/2020,UNITED STATES,US,USA,2009,2020,701338,99999
701486-26642,KIVALINA AIRPORT,67.732,-164.548,US,AK,1/1/2006,1/8/2020,UNITED STATES,US,USA,2006,2020,701486,26642
701625-26542,ANAKTUVUK PASS AIRPORT,68.167,-151.767,US,AK,1/1/2006,1/8/2020,UNITED STATES,US,USA,2006,2020,701625,26542
701718-26551,AMBLER AIRPORT,67.1,-157.85,US,AK,1/1/2006,1/8/2020,UNITED STATES,US,USA,2006,2020,701718,26551
701730-26535,INDIAN MOUNTAIN LRRS ARPT,66,-153.7,US,AK,1/1/2005,1/8/2020,UNITED STATES,US,USA,2005,2020,701730,26535
701740-26533,BETTLES AIRPORT,66.917,-151.515,US,AK,1/1/1945,1/8/2020,UNITED STATES,US,USA,1945,2020,701740,26533
701748-99999,PROSPECT CREEK AIRPORT,66.817,-150.65,US,AK,8/25/1973,1/7/2020,UNITED STATES,US,USA,1973,2020,701748,99999
701780-26529,RALPH M CALHOUN MEML ARPT,65.175,-152.107,US,AK,6/1/1943,1/8/2020,UNITED STATES,US,USA,1943,2020,701780,26529
701940-26413,FORT YUKON AIRPORT,66.567,-145.267,US,AK,1/1/1973,1/8/2020,UNITED STATES,US,USA,1973,2020,701940,26413
701945-46405,ARCTIC VILLAGE AIRPORT,68.115,-145.579,US,AK,1/1/2006,1/8/2020,UNITED STATES,US,USA,2006,2020,701945,46405
701975-26422,EAGLE AIRPORT,64.777,-141.148,US,AK,1/1/2006,1/8/2020,UNITED STATES,US,USA,2006,2020,701975,26422
701995-26628,CAPE DARBY REMOT COM OUTLT,64.55,-163.007,US,AK,1/1/2005,1/7/2020,UNITED STATES,US,USA,2005,2020,701995,26628
702000-26617,NOME AIRPORT,64.511,-165.44,US,AK,1/1/1940,1/8/2020,UNITED STATES,US,USA,1940,2020,702000,26617
702004-99999,WHITE MOUNTAIN,64.689,-163.413,US,AK,12/1/2011,1/7/2020,UNITED STATES,US,USA,2011,2020,702004,99999
702005-26647,ST MARY'S AIRPORT,62.062,-163.3,US,AK,1/1/2006,1/8/2020,UNITED STATES,US,USA,2006,2020,702005,26647
702006-26502,KALTAG AIRPORT,64.327,-158.742,US,AK,1/1/2006,1/8/2020,UNITED STATES,US,USA,2006,2020,702006,26502
702035-26704,SAVOONGA AIRPORT,63.687,-170.493,US,AK,1/8/2006,1/8/2020,UNITED STATES,US,USA,2006,2020,702035,26704
702040-26703,GAMBELL AIRPORT,63.767,-171.733,US,AK,6/3/1987,1/8/2020,UNITED STATES,US,USA,1987,2020,702040,26703
702070-26627,UNALAKLEET AIRPORT,63.883,-160.8,US,AK,6/1/1943,1/8/2020,UNITED STATES,US,USA,1943,2020,702070,26627
702075-26644,ANVIK AIRPORT,62.65,-160.183,US,AK,1/1/2006,1/8/2020,UNITED STATES,US,USA,2006,2020,702075,26644
702084-26650,EMMONAK,62.785,-164.491,US,AK,1/1/2006,10/22/2019,UNITED STATES,US,USA,2006,2019,702084,26650
702120-26646,CAPE ROMANZOF LRRS ARPT,61.783,-166.033,US,AK,1/1/2006,1/8/2020,UNITED STATES,US,USA,2006,2020,702120,26646
702185-26622,MEKORYUK AIRPORT,60.383,-166.2,US,AK,1/5/2006,1/8/2020,UNITED STATES,US,USA,2006,2020,702185,26622
702186-26651,HOOPER BAY AIRPORT,61.524,-166.147,US,AK,1/1/2006,11/19/2019,UNITED STATES,US,USA,2006,2019,702186,26651
702190-26615,BETHEL AIRPORT,60.785,-161.829,US,AK,1/1/1945,1/8/2020,UNITED STATES,US,USA,1945,2020,702190,26615
702195-99999,NAPAKIAK,60.683,-161.983,US,AK,8/30/1994,1/7/2020,UNITED STATES,US,USA,1994,2020,702195,99999
702220-26501,GALENA AIRPORT,64.737,-156.934,US,AK,1/1/2006,1/8/2020,UNITED STATES,US,USA,2006,2020,702220,26501
702223-26602,KOYUK AIRPORT,64.935,-161.155,US,AK,1/1/2006,1/8/2020,UNITED STATES,US,USA,2006,2020,702223,26602
702310-26510,MCGRATH AIRPORT,62.957,-155.61,US,AK,1/1/1973,1/8/2020,UNITED STATES,US,USA,1973,2020,702310,26510
702315-26536,TATALINA LRRS AIRPORT,62.894,-155.976,US,AK,1/1/2006,1/7/2020,UNITED STATES,US,USA,2006,2020,702315,26536
702320-26516,ANIAK AIRPORT,61.582,-159.543,US,AK,1/1/1973,1/8/2020,UNITED STATES,US,USA,1973,2020,702320,26516
702325-26443,WASILLA AIRPORT,61.572,-149.541,US,AK,7/2/2004,1/8/2020,UNITED STATES,US,USA,2004,2020,702325,26443
702350-26534,SPARREVOHN LRRS AIRPORT,61.1,-155.583,US,AK,1/1/2006,1/8/2020,UNITED STATES,US,USA,2006,2020,702350,26534
702460-26512,MINCHUMINA,63.886,-152.302,US,AK,1/1/1973,1/8/2020,UNITED STATES,US,USA,1973,2020,702460,26512
702490-26526,PUNTILLA LAKE,62.091,-152.735,US,AK,1/1/2006,1/8/2020,UNITED STATES,US,USA,2006,2020,702490,26526
702510-26528,TALKEETNA AIRPORT,62.32,-150.095,US,AK,1/1/1973,1/8/2020,UNITED STATES,US,USA,1973,2020,702510,26528
702590-26523,KENAI MUNICIPAL AIRPORT,60.58,-151.239,US,AK,1/1/1973,1/8/2020,UNITED STATES,US,USA,1973,2020,702590,26523
702595-26559,SOLDOTNA AIRPORT,60.476,-151.034,US,AK,1/1/2006,1/8/2020,UNITED STATES,US,USA,2006,2020,702595,26559
702600-26435,NENANA MUNICIPAL AIRPORT,64.55,-149.072,US,AK,7/6/1943,1/8/2020,UNITED STATES,US,USA,1943,2020,702600,26435
702606-96401,CHULITNA,62.826,-149.907,US,AK,1/1/2006,1/8/2020,UNITED STATES,US,USA,2006,2020,702606,96401
702607-25378,HOONAH SEAPLANE BASE,58.096,-135.409,US,AK,1/1/2006,1/8/2020,UNITED STATES,US,USA,2006,2020,702607,25378
702610-26411,FAIRBANKS INTERNATIONAL,64.804,-147.876,US,AK,1/1/1946,1/8/2020,UNITED STATES,US,USA,1946,2020,702610,26411
702615-26498,WAINWRIGHT AAF AIRPORT,64.838,-147.614,US,AK,1/3/2006,1/8/2020,UNITED STATES,US,USA,2006,2020,702615,26498
702626-99999,PILOT POINT,57.58,-157.58,US,AK,10/24/2006,1/7/2020,UNITED STATES,US,USA,2006,2020,702626,99999
702627-26561,RUBY  AIRPORT,64.727,-155.47,US,AK,10/1/2006,1/2/2020,UNITED STATES,US,USA,2006,2020,702627,26561
702645-46403,MCKINLEY NATIONAL PARK AIRPORT,63.733,-148.917,US,AK,1/1/2006,1/8/2020,UNITED STATES,US,USA,2006,2020,702645,46403
702650-26407,EIELSON AFB AIRPORT,64.683,-147.083,US,AK,1/2/2006,1/8/2020,UNITED STATES,US,USA,2006,2020,702650,26407
702670-26415,ALLEN ARMY AIRFIELD,63.994,-145.721,US,AK,10/15/1945,1/8/2020,UNITED STATES,US,USA,1945,2020,702670,26415
702685-27518,ATQASUK EDWARD BURNELL SR. MEMORIAL AIRPORT,70.467,-157.436,US,AK,5/1/2006,1/8/2020,UNITED STATES,US,USA,2006,2020,702685,27518
702710-26425,GULKANA AIRPORT,62.159,-145.459,US,AK,1/1/1945,1/8/2020,UNITED STATES,US,USA,1945,2020,702710,26425
702715-46407,SKELTON AIRPORT,61.949,-147.169,US,AK,1/1/2006,1/8/2020,UNITED STATES,US,USA,2006,2020,702715,46407
702720-26401,ELMENDORF AFB AIRPORT,61.253,-149.794,US,AK,1/1/2006,1/8/2020,UNITED STATES,US,USA,2006,2020,702720,26401
702725-26491,LAKE HOOD SEAPLANE BASE,61.178,-149.966,US,AK,1/1/2002,1/8/2020,UNITED STATES,US,USA,2002,2020,702725,26491
702730-26451,TED STEVENS ANCHORAGE INTL,61.169,-150.028,US,AK,1/1/1973,1/8/2020,UNITED STATES,US,USA,1973,2020,702730,26451
702735-26409,MERRILL FIELD AIRPORT,61.217,-149.855,US,AK,1/1/1945,1/8/2020,UNITED STATES,US,USA,1945,2020,702735,26409
702740-25331,PALMER MUNICIPAL AIRPORT,61.596,-149.092,US,AK,1/1/1999,1/8/2020,UNITED STATES,US,USA,1999,2020,702740,25331
702746-26497,BIRCHWOOD AIRPORT,61.416,-149.507,US,AK,1/1/2006,1/8/2020,UNITED STATES,US,USA,2006,2020,702746,26497
702756-26479,VALDEZ PIONEER FIELD AIRPORT,61.132,-146.244,US,AK,1/1/2006,1/8/2020,UNITED STATES,US,USA,2006,2020,702756,26479
702758-27517,ALPINE AIRSTRIP,70.344,-150.945,US,AK,1/1/2006,1/8/2020,UNITED STATES,US,USA,2006,2020,702758,27517
702770-26438,SEWARD AIRPORT,60.128,-149.417,US,AK,1/1/2006,1/8/2020,UNITED STATES,US,USA,2006,2020,702770,26438
702910-26412,NORTHWAY AIRPORT,62.962,-141.988,US,AK,1/1/1945,1/8/2020,UNITED STATES,US,USA,1945,2020,702910,26412
702960-26410,M.K.(MUDHOLE) SMITH ARPT,60.489,-145.451,US,AK,6/11/1942,1/8/2020,UNITED STATES,US,USA,1942,2020,702960,26410
702986-26557,BIG RIVER LAKE,60.814,-152.297,US,AK,1/1/2006,8/8/2019,UNITED STATES,US,USA,2006,2019,702986,26557
703050-25623,CAPE HEWENHAM LRRS AIRPORT,58.65,-162.067,US,AK,1/1/2006,1/7/2020,UNITED STATES,US,USA,2006,2020,703050,25623
703051-26521,HOLY CROSS AIRPORT,62.183,-159.767,US,AK,1/1/2006,1/8/2020,UNITED STATES,US,USA,2006,2020,703051,26521
703052-26652,KALSKAG AIRPORT,61.536,-160.341,US,AK,1/17/2006,12/4/2019,UNITED STATES,US,USA,2006,2019,703052,26652
703053-26654,RUSSIAN MISSION AIRPORT,61.775,-161.319,US,AK,1/1/2006,1/8/2020,UNITED STATES,US,USA,2006,2020,703053,26654
703056-26635,MOUNTAIN VILLAGE AIRPORT,62.095,-163.682,US,AK,1/1/2006,1/8/2020,UNITED STATES,US,USA,2006,2020,703056,26635
703057-26653,TOKSOOK BAY AIRPORT,60.541,-165.087,US,AK,1/1/2006,1/8/2020,UNITED STATES,US,USA,2006,2020,703057,26653
703059-99999,KING COVE,55.17,-162.27,US,AK,9/30/2005,1/7/2020,UNITED STATES,US,USA,2005,2020,703059,99999
703061-25521,IGIUGIG AIRPORT,59.324,-155.902,US,AK,1/1/2006,1/8/2020,UNITED STATES,US,USA,2006,2020,703061,25521
703080-25713,ST PAUL ISLAND AIRPORT,57.155,-170.222,US,AK,11/5/1943,1/8/2020,UNITED STATES,US,USA,1943,2020,703080,25713
703160-25624,COLD BAY AIRPORT,55.221,-162.732,US,AK,3/4/1942,1/8/2020,UNITED STATES,US,USA,1942,2020,703160,25624
703165-25617,SAND POINT AIRPORT,55.319,-160.521,US,AK,1/1/2005,1/8/2020,UNITED STATES,US,USA,2005,2020,703165,25617
703210-25513,DILLINGHAM AIRPORT,59.05,-158.517,US,AK,1/1/2006,1/8/2020,UNITED STATES,US,USA,2006,2020,703210,25513
703260-25503,KING SALMON AIRPORT,58.683,-156.656,US,AK,1/10/1942,1/8/2020,UNITED STATES,US,USA,1942,2020,703260,25503
703330-25508,PORT HEIDEN AIRPORT,56.959,-158.632,US,AK,1/1/2006,1/8/2020,UNITED STATES,US,USA,2006,2020,703330,25508
703333-25518,CHIGNIK AIRPORT,56.311,-158.373,US,AK,1/1/2006,12/31/2019,UNITED STATES,US,USA,2006,2019,703333,25518
703334-25519,EGEGIK AIRPORT,58.185,-157.386,US,AK,1/1/2006,1/8/2020,UNITED STATES,US,USA,2006,2020,703334,25519
703335-99999,SOUTH NAKNEK ARPT,58.7,-157,US,AK,8/18/1994,1/7/2020,UNITED STATES,US,USA,1994,2020,703335,99999
703400-25506,ILIAMNA AIRPORT,59.749,-154.909,US,AK,1/1/1973,1/8/2020,UNITED STATES,US,USA,1973,2020,703400,25506
703406-26546,PORT ALSWORTH AIRPORT,60.204,-154.316,US,AK,1/1/2005,1/5/2020,UNITED STATES,US,USA,2005,2020,703406,26546
703407-26553,SLEETMUTE AIRPORT,61.717,-157.15,US,AK,1/1/2006,1/8/2020,UNITED STATES,US,USA,2006,2020,703407,26553
703410-25507,HOMER AIRPORT,59.642,-151.491,US,AK,1/1/1973,1/8/2020,UNITED STATES,US,USA,1973,2020,703410,25507
703430-25402,MIDDLETON ISLAND METEOROLOGY RADAR SITE,59.433,-146.333,US,AK,1/1/1945,1/8/2020,UNITED STATES,US,USA,1945,2020,703430,25402
703500-25501,KODIAK AIRPORT,57.751,-152.486,US,AK,1/1/1945,1/8/2020,UNITED STATES,US,USA,1945,2020,703500,25501
703605-25604,PLATINUM AIRPORT,59.011,-161.82,US,AK,3/23/2006,1/8/2020,UNITED STATES,US,USA,2006,2020,703605,25604
703606-25629,TOGIAK AIRPORT,59.067,-160.367,US,AK,1/1/2006,1/8/2020,UNITED STATES,US,USA,2006,2020,703606,25629
703610-25339,YAKUTAT AIRPORT,59.512,-139.671,US,AK,5/1/1941,1/8/2020,UNITED STATES,US,USA,1941,2020,703610,25339
703620-25335,SKAGWAY AIRPORT,59.456,-135.324,US,AK,10/1/1943,1/8/2020,UNITED STATES,US,USA,1943,2020,703620,25335
703621-25516,SELDOVIA AIRPORT,59.443,-151.702,US,AK,1/1/2006,1/8/2020,UNITED STATES,US,USA,2006,2020,703621,25516
703626-25323,HAINES,59.243,-135.509,US,AK,6/13/1996,1/8/2020,UNITED STATES,US,USA,1996,2020,703626,25323
703644-27515,NUIQSUT AIRPORT,70.212,-151.002,US,AK,1/1/2006,1/8/2020,UNITED STATES,US,USA,2006,2020,703644,27515
703655-26552,HUSLIA AIRPORT,65.698,-156.351,US,AK,1/1/2006,1/8/2020,UNITED STATES,US,USA,2006,2020,703655,26552
703656-99999,QUINHAGAK AIRPORT,59.75,-161.833,US,AK,2/11/2014,1/7/2020,UNITED STATES,US,USA,2014,2020,703656,99999
703670-25322,GUSTAVUS,58.411,-135.709,US,AK,8/1/1976,1/8/2020,UNITED STATES,US,USA,1976,2020,703670,25322
703710-25333,SITKA ROCKY GUTIERREZ ARPT,57.048,-135.365,US,AK,1/1/1973,1/8/2020,UNITED STATES,US,USA,1973,2020,703710,25333
703810-25309,JUNEAU INTERNATIONAL,58.357,-134.564,US,AK,1/1/1973,1/8/2020,UNITED STATES,US,USA,1973,2020,703810,25309
703817-25357,ELFIN COVE SEAPLANE BASE,58.192,-136.344,US,AK,1/1/2006,11/27/2019,UNITED STATES,US,USA,2006,2019,703817,25357
703830-25310,ANGOON SEAPLANE BASE,57.499,-134.586,US,AK,1/1/1973,1/8/2020,UNITED STATES,US,USA,1973,2020,703830,25310
703835-25628,ST. GEORGE AIRPORT,56.6,-169.565,US,AK,1/1/2006,1/8/2020,UNITED STATES,US,USA,2006,2020,703835,25628
703855-25369,KAKE AIRPORT,56.967,-133.9,US,AK,1/1/2006,12/20/2019,UNITED STATES,US,USA,2006,2019,703855,25369
703860-25329,JAMES A JOHNSON AIRPORT,56.806,-132.937,US,AK,1/1/1973,1/8/2020,UNITED STATES,US,USA,1973,2020,703860,25329
703870-25338,WRANGELL AIRPORT,56.473,-132.387,US,AK,1/1/2006,1/8/2020,UNITED STATES,US,USA,2006,2020,703870,25338
703884-25376,HYDABURG SEAPLANE BASE,55.206,-132.828,US,AK,1/1/2006,10/31/2019,UNITED STATES,US,USA,2006,2019,703884,25376
703891-99999,ELIM AIRPORT,64.617,-162.267,US,AK,7/31/2013,1/7/2020,UNITED STATES,US,USA,2013,2020,703891,99999
703894-25367,KLAWOCK AIRPORT,55.58,-133.075,US,AK,1/1/2000,1/8/2020,UNITED STATES,US,USA,2000,2020,703894,25367
703926-99999,AKHIOK,56.933,-154.183,US,AK,5/21/2007,1/7/2020,UNITED STATES,US,USA,2007,2020,703926,99999
703950-25325,KETCHIKAN INTL AIRPORT,55.35,-131.65,US,AK,1/1/1973,1/8/2020,UNITED STATES,US,USA,1973,2020,703950,25325
703980-25308,ANNETTE ISLAND AIRPORT,55.039,-131.579,US,AK,7/14/1941,10/1/2019,UNITED STATES,US,USA,1941,2019,703980,25308
703985-25377,METLAKATLA SEAPLANE BASE,55.131,-131.578,US,AK,1/1/2006,1/8/2020,UNITED STATES,US,USA,2006,2020,703985,25377
704140-45715,EARECKSON AIR STATION AIRPORT,52.717,174.1,US,AK,1/1/2005,1/8/2020,UNITED STATES,US,USA,2005,2020,704140,45715
704540-25704,ADAK NAS,51.883,-176.65,US,AK,10/30/1942,1/8/2020,UNITED STATES,US,USA,1942,2020,704540,25704
704890-25616,DUTCH HARBOR AIRPORT,53.895,-166.543,US,AK,11/24/2008,1/8/2020,UNITED STATES,US,USA,2008,2020,704890,25616
711680-99999,SIOUX FALLS CLIMATE,43.733,-96.633,US,SD,10/1/1994,1/7/2020,UNITED STATES,US,USA,1994,2020,711680,99999
720110-53983,LLANO MUNICIPAL AIRPORT,30.784,-98.662,US,TX,1/1/2005,1/8/2020,UNITED STATES,US,USA,2005,2020,720110,53983
720113-54829,OAKLAND/TROY AIRPORT,42.543,-83.178,US,MI,1/1/2005,1/8/2020,UNITED STATES,US,USA,2005,2020,720113,54829
720120-63837,HILTON HEAD AIRPORT,32.217,-80.7,US,SC,1/1/2006,1/8/2020,UNITED STATES,US,USA,2006,2020,720120,63837
720129-99999,AUSTIN ARPT,39.468,-117.197,US,NV,5/10/2017,1/7/2020,UNITED STATES,US,USA,2017,2020,720129,99999
720168-99999,COVINGTON MUNI,35.583,-89.587,US,TN,4/27/2017,1/7/2020,UNITED STATES,US,USA,2017,2020,720168,99999
720170-63851,METROPOLIS MUNICIPAL AIRPORT,37.186,-88.751,US,IL,1/1/2006,1/8/2020,UNITED STATES,US,USA,2006,2020,720170,63851
720171-99999,WILLIAM L WHITEHURST FLD,35.214,-89.043,US,TN,8/4/2016,1/7/2020,UNITED STATES,US,USA,2016,2020,720171,99999
720172-53996,MENA INTERMOUNTAIN MUNICIPAL AIRPORT,34.545,-94.203,US,AR,1/1/2006,1/7/2020,UNITED STATES,US,USA,2006,2020,720172,53996
720175-53919,MONTCELO MUNI/ELLIS FLD AP,33.636,-91.756,US,AR,1/1/2005,1/8/2020,UNITED STATES,US,USA,2005,2020,720175,53919
720198-54813,MUNISING LAKESHORE,46.417,-86.65,US,MI,1/1/2006,1/8/2020,UNITED STATES,US,USA,2006,2020,720198,54813
720255-99999,MIAMI MUNI,36.909,-94.888,US,OK,8/28/2019,1/7/2020,UNITED STATES,US,USA,2019,2020,720255,99999
720257-63835,EARLY COUNTY AIRPORT,31.397,-84.895,US,GA,1/1/2006,1/9/2020,UNITED STATES,US,USA,2006,2020,720257,63835
720261-53976,BRIDGEPORT MUNICIPAL ARPT,33.175,-97.828,US,TX,1/1/2006,1/8/2020,UNITED STATES,US,USA,2006,2020,720261,53976
720263-63834,ELBERT CO-PATZ FLD AIRPORT,34.095,-82.816,US,GA,1/1/2005,9/13/2019,UNITED STATES,US,USA,2005,2019,720263,63834
720265-63833,THOMAS C RUSSELL FLD ARPT,32.915,-85.963,US,AL,1/1/2006,1/8/2020,UNITED STATES,US,USA,2006,2020,720265,63833
720266-54809,WARSAW MUNICIPAL AIRPORT,41.275,-85.84,US,IN,1/1/2006,1/8/2020,UNITED STATES,US,USA,2006,2020,720266,54809
720267-23224,AUBURN MUNICIPAL AIRPORT,38.955,-121.082,US,CA,1/1/2006,1/8/2020,UNITED STATES,US,USA,2006,2020,720267,23224
720268-53882,DCATR CO INDUS AIRPK ARPT,30.983,-84.633,US,GA,1/1/2006,1/8/2020,UNITED STATES,US,USA,2006,2020,720268,53882
720269-12982,BROOKS COUNTY AIRPORT,27.207,-98.121,US,TX,1/1/2006,1/8/2020,UNITED STATES,US,USA,2006,2020,720269,12982
720272-94282,SKAGIT REGIONAL AIRPORT,48.467,-122.417,US,WA,1/1/2006,1/8/2020,UNITED STATES,US,USA,2006,2020,720272,94282
720273-12981,BAY CITY MUNICIPAL AIRPORT,28.973,-95.863,US,TX,1/1/2006,1/8/2020,UNITED STATES,US,USA,2006,2020,720273,12981
720274-93799,COLUMBUS CO MUNICIPAL ARPT,34.273,-78.715,US,NC,1/1/2006,1/8/2020,UNITED STATES,US,USA,2006,2020,720274,93799
720276-12983,EDINBURG INTL AIRPORT,26.442,-98.129,US,TX,1/1/2006,1/8/2020,UNITED STATES,US,USA,2006,2020,720276,12983
720277-63843,SHELBY MUNICIPAL AIRPORT,35.256,-81.601,US,NC,1/1/2006,1/8/2020,UNITED STATES,US,USA,2006,2020,720277,63843
720286-53977,GRANBURY MUNICIPAL ARPT,32.444,-97.817,US,TX,1/1/2006,1/8/2020,UNITED STATES,US,USA,2006,2020,720286,53977
720287-53967,GRAYSON COUNTY AIRPORT,33.714,-96.674,US,TX,1/1/2006,1/8/2020,UNITED STATES,US,USA,2006,2020,720287,53967
720289-63836,THOMSON-MCDUFFIE CO ARPT,33.53,-82.516,US,GA,1/1/2005,1/8/2020,UNITED STATES,US,USA,2005,2020,720289,63836
720291-53970,MESQUITE METROPOLITAN ARPT,32.747,-96.531,US,TX,1/1/2006,1/8/2020,UNITED STATES,US,USA,2006,2020,720291,53970
720294-53898,WASHINGTON-WILKES CO ARPT,33.78,-82.816,US,GA,10/28/2006,1/8/2020,UNITED STATES,US,USA,2006,2020,720294,53898
720295-53972,HILLSBORO MUNICIPAL ARPT,32.084,-97.097,US,TX,1/1/2006,1/8/2020,UNITED STATES,US,USA,2006,2020,720295,53972
720296-53945,JASPER COUNTY-BELL FLD APT,30.886,-94.035,US,TX,1/1/2006,1/8/2020,UNITED STATES,US,USA,2006,2020,720296,53945
720298-53971,CHEROKEE COUNTY AIRPORT,31.869,-95.218,US,TX,1/1/2006,1/8/2020,UNITED STATES,US,USA,2006,2020,720298,53971
720299-53966,MID-WAY REGIONAL AIRPORT,32.456,-96.913,US,TX,1/1/2006,1/8/2020,UNITED STATES,US,USA,2006,2020,720299,53966
720301-63846,PLANTATION AIRPARK,32.646,-81.596,US,GA,1/1/2006,1/8/2020,UNITED STATES,US,USA,2006,2020,720301,63846
720303-53973,HEARNE MUNICIPAL AIRPORT,30.872,-96.622,US,TX,1/1/2006,1/8/2020,UNITED STATES,US,USA,2006,2020,720303,53973
720304-64752,WINGS FIELD AIRPORT,40.1,-75.267,US,PA,1/1/2005,1/8/2020,UNITED STATES,US,USA,2005,2020,720304,64752
720305-53964,DECATUR MUNICIPAL AIRPORT,33.254,-97.581,US,TX,1/1/2006,1/8/2020,UNITED STATES,US,USA,2006,2020,720305,53964
720306-53879,LEE'S SUMMIT MUNICIPAL APT,38.96,-94.371,US,MO,1/1/2006,1/8/2020,UNITED STATES,US,USA,2006,2020,720306,53879
720307-63804,MADISON CO EXECUTIVE ARPT,34.861,-86.557,US,AL,1/1/2006,1/8/2020,UNITED STATES,US,USA,2006,2020,720307,63804
720311-53962,MOUNT PLEASANT RGNL ARPT,33.096,-94.961,US,TX,1/1/2006,1/8/2020,UNITED STATES,US,USA,2006,2020,720311,53962
720314-93983,PALESTINE MUNICIPAL ARPT,31.78,-95.706,US,TX,1/1/2006,1/8/2020,UNITED STATES,US,USA,2006,2020,720314,93983
720316-12984,NUECES COUNTY ARIPORT,27.779,-97.691,US,TX,1/1/2006,1/8/2020,UNITED STATES,US,USA,2006,2020,720316,12984
720318-53965,GRAHAM MUNICIPAL AIRPORT,33.11,-98.555,US,TX,1/1/2006,1/8/2020,UNITED STATES,US,USA,2006,2020,720318,53965
720319-63841,ROBINSON MUNICIPAL AIRPORT,39.016,-87.65,US,IL,1/1/2006,1/8/2020,UNITED STATES,US,USA,2006,2020,720319,63841
720320-53981,CLEBURNE MUNICIPAL AIRPORT,32.354,-97.434,US,TX,1/1/2006,1/8/2020,UNITED STATES,US,USA,2006,2020,720320,53981
720323-93947,GILLESPIE CO,30.243,-98.91,US,TX,1/1/2006,1/8/2020,UNITED STATES,US,USA,2006,2020,720323,93947
720324-64753,QUAKERTOWN AIRPORT,40.435,-75.382,US,PA,1/1/2006,1/9/2020,UNITED STATES,US,USA,2006,2020,720324,64753
720328-63832,UPSHUR COUNTY RGNL AIRPORT,39,-80.274,US,WV,1/1/2006,1/8/2020,UNITED STATES,US,USA,2006,2020,720328,63832
720329-99999,CABLE,34.112,-117.688,US,CA,12/7/2017,1/7/2020,UNITED STATES,US,USA,2017,2020,720329,99999
720330-63853,MOUNT CARMEL MUNICIPAL AIRPORT,38.607,-87.727,US,IL,1/1/2006,1/8/2020,UNITED STATES,US,USA,2006,2020,720330,63853
720331-99999,KENNETT MEM,36.226,-90.037,US,MO,12/10/2015,1/7/2020,UNITED STATES,US,USA,2015,2020,720331,99999
720333-53175,CORONA MUNICIPAL AIRPORT,33.898,-117.602,US,CA,9/7/2006,1/8/2020,UNITED STATES,US,USA,2006,2020,720333,53175
720334-93764,GAITHERSBURG MONTGOMERY COUNTY AIR PARK,39.167,-77.167,US,MD,10/17/2007,1/8/2020,UNITED STATES,US,USA,2007,2020,720334,93764
720340-54818,FRANKFORT DOW MEMORIAL FIELD AIRPORT,44.626,-86.201,US,MI,1/1/2006,1/8/2020,UNITED STATES,US,USA,2006,2020,720340,54818
720342-53947,WATONGA AIRPORT,35.864,-98.421,US,OK,1/1/2006,1/8/2020,UNITED STATES,US,USA,2006,2020,720342,53947
720343-54852,WAUPACA MUNICIPAL AIRPORT,44.333,-89.02,US,WI,1/1/2006,1/8/2020,UNITED STATES,US,USA,2006,2020,720343,54852
720344-54920,CHEROKEE MUNICIPAL AIRPORT/,42.732,-95.556,US,IA,1/1/2006,1/8/2020,UNITED STATES,US,USA,2006,2020,720344,54920
720345-94086,RALPH WENZ FIELD AIRPORT,42.796,-109.807,US,WY,1/1/2006,1/9/2020,UNITED STATES,US,USA,2006,2020,720345,94086
720346-53991,ALLEN PARISH AIRPORT,30.75,-92.688,US,LA,4/8/2005,1/8/2020,UNITED STATES,US,USA,2005,2020,720346,53991
720347-63877,GREENE COUNTY REGIONAL AIRPORT,33.598,-83.139,US,GA,1/1/2006,1/8/2020,UNITED STATES,US,USA,2006,2020,720347,63877
720348-63886,BALDWIN COUNTY AIRPORT,33.154,-83.241,US,GA,1/1/2006,1/8/2020,UNITED STATES,US,USA,2006,2020,720348,63886
720351-54919,OSKALOOSA MUNICIPAL AIRPORT,41.226,-92.491,US,IA,1/1/2006,1/8/2020,UNITED STATES,US,USA,2006,2020,720351,54919
720353-63875,MIDDLESBORO-BELL COUNTY AIRPORT,36.611,-83.738,US,KY,1/1/2006,1/8/2020,UNITED STATES,US,USA,2006,2020,720353,63875
720354-63901,ALTUS/QUARTZ MOUNTAIN REGIONAL AIRPORT,34.699,-99.338,US,OK,5/24/2005,1/8/2020,UNITED STATES,US,USA,2005,2020,720354,63901
720356-13999,CLINTON REGIONAL AIRPORT,35.538,-98.933,US,OK,6/11/2005,1/8/2020,UNITED STATES,US,USA,2005,2020,720356,13999
720357-53993,CUSHING MUNICIPAL AIRPORT,35.95,-96.773,US,OK,1/1/2006,1/8/2020,UNITED STATES,US,USA,2006,2020,720357,53993
720358-53999,EL RENO REGIONAL AIRPORT,35.473,-98.006,US,OK,8/17/2005,1/8/2020,UNITED STATES,US,USA,2005,2020,720358,53999
720359-23902,SEMINOLE MUNICIPAL AIRPORT,35.275,-96.675,US,OK,6/11/2005,1/8/2020,UNITED STATES,US,USA,2005,2020,720359,23902
720361-63870,FLORALA MUNI,31.043,-86.312,US,AL,5/11/2006,1/8/2020,UNITED STATES,US,USA,2006,2020,720361,63870
720362-63874,MAC CRENSHAW MEMORIAL AIRPORT,31.846,-86.611,US,AL,9/1/2006,1/8/2020,UNITED STATES,US,USA,2006,2020,720362,63874
720363-63872,WEEDON FIELD AIRPORT,31.951,-85.129,US,AL,9/1/2006,3/4/2019,UNITED STATES,US,USA,2006,2019,720363,63872
720365-24267,BROOKINGS AIRPORT,42.074,-124.29,US,OR,8/2/2005,1/8/2020,UNITED STATES,US,USA,2005,2020,720365,24267
720367-54927,PAYNESVILLE MUNICIPAL AP,45.372,-94.746,US,MN,8/12/2005,1/8/2020,UNITED STATES,US,USA,2005,2020,720367,54927
720368-54924,SLAYTON MUNICIPAL AIRPORT,43.987,-95.783,US,MN,8/11/2005,1/8/2020,UNITED STATES,US,USA,2005,2020,720368,54924
720371-54850,HREE RIVERS MUNICIPAL DR HAINES AIRPORT,41.96,-85.593,US,MI,10/24/2006,1/8/2020,UNITED STATES,US,USA,2006,2020,720371,54850
720373-92824,PLANT CITY MUNICIPAL AIRPORT,28,-82.164,US,FL,10/24/2006,1/8/2020,UNITED STATES,US,USA,2006,2020,720373,92824
720374-92825,PETER O KNIGHT AIRPORT,27.916,-82.449,US,FL,10/24/2006,1/8/2020,UNITED STATES,US,USA,2006,2020,720374,92825
720375-54844,DRUMMOND ISLAND AIRPORT,46.007,-83.743,US,MI,8/31/2006,1/9/2020,UNITED STATES,US,USA,2006,2020,720375,54844
720376-63880,THE ALBERTVILLE MUNI ARPT-THOMAS J BRUMLIK FLD,34.229,-86.256,US,AL,4/3/2006,1/8/2020,UNITED STATES,US,USA,2006,2020,720376,63880
720377-13917,NEWPORT MUNI,35.633,-91.167,US,AR,5/1/2006,1/8/2020,UNITED STATES,US,USA,2006,2020,720377,13917
720379-63882,WAYNE COUNTY AIRPORT,36.855,-84.856,US,KY,5/1/2006,1/8/2020,UNITED STATES,US,USA,2006,2020,720379,63882
720381-63885,JACK EDWARDS AIRPORT,30.291,-87.672,US,AL,5/1/2006,1/8/2020,UNITED STATES,US,USA,2006,2020,720381,63885
720383-53847,WHITING FIELD NAVAL AIR STATION-SOUTH,30.704,-87.023,US,FL,1/16/2007,1/8/2020,UNITED STATES,US,USA,2007,2020,720383,53847
720409-99999,BLAIRSVILLE AIRPORT,34.85,-83.983,US,GA,1/1/2008,1/7/2020,UNITED STATES,US,USA,2008,2020,720409,99999
720412-54943,PERRY MUNICIPAL AIRPORT,41.828,-94.16,US,IA,1/1/2009,1/8/2020,UNITED STATES,US,USA,2009,2020,720412,54943
720417-99999,JOHNSON (STANTON CO MUNI),37.583,-101.733,US,KS,3/2/2016,1/7/2020,UNITED STATES,US,USA,2016,2020,720417,99999
720425-99999,HUGOTON MUNI,37.163,-101.371,US,KS,10/20/2015,1/7/2020,UNITED STATES,US,USA,2015,2020,720425,99999
720434-99999,OAKLEY MUNI,39.11,-100.816,US,KS,4/25/2019,1/7/2020,UNITED STATES,US,USA,2019,2020,720434,99999
720438-99999,SCOTT CITY MUNI,38.474,-100.885,US,KS,4/29/2019,1/7/2020,UNITED STATES,US,USA,2019,2020,720438,99999
720439-99999,ULYSSES,37.604,-101.374,US,KS,5/24/2018,8/14/2019,UNITED STATES,US,USA,2018,2019,720439,99999
720445-99999,CAMPBELLVILLE / TAYLOR CO,37.358,-85.309,US,KY,7/19/2018,12/16/2019,UNITED STATES,US,USA,2018,2019,720445,99999
720446-99999,SAMUELS FLD / BARDSTOWN,37.814,-85.5,US,KY,12/7/2017,1/7/2020,UNITED STATES,US,USA,2017,2020,720446,99999
720449-99999,ASHLAND RGNL,38.555,-82.738,US,KY,8/13/2014,1/7/2020,UNITED STATES,US,USA,2014,2020,720449,99999
720451-99999,ADDINGTON FLD,37.686,-85.925,US,KY,11/10/2016,1/7/2020,UNITED STATES,US,USA,2016,2020,720451,99999
720452-99999,FLEMING/MASON AIRPORT,38.542,-83.743,US,KY,3/7/2014,1/7/2020,UNITED STATES,US,USA,2014,2020,720452,99999
720464-99999,PIKE CO HATCHER FLD,37.562,-82.566,US,KY,9/23/2014,1/7/2020,UNITED STATES,US,USA,2014,2020,720464,99999
720465-99999,WILLIAMSBURG (WHITLEY CO ARPT),36.8,-84.2,US,KY,3/2/2016,1/7/2020,UNITED STATES,US,USA,2016,2020,720465,99999
720472-99999,STEVEN A BEAN MUNI,44.992,-70.665,US,ME,1/16/2017,1/7/2020,UNITED STATES,US,USA,2017,2020,720472,99999
720475-99999,NORTHWEST MISSOURI RGNL,40.353,-94.915,US,MO,1/5/2017,7/21/2019,UNITED STATES,US,USA,2017,2019,720475,99999
720477-99999,FLOYD W JONES LEBANON,37.648,-92.652,US,MO,6/30/2017,1/7/2020,UNITED STATES,US,USA,2017,2020,720477,99999
720478-99999,LAWRENCE SMITH MEM,38.611,-94.342,US,MO,12/16/2016,1/7/2020,UNITED STATES,US,USA,2016,2020,720478,99999
720481-99999,MALDEN MUNI,36.601,-89.992,US,MO,5/17/2016,1/7/2020,UNITED STATES,US,USA,2016,2020,720481,99999
720482-99999,OMAR N BRADLEY,39.464,-92.427,US,MO,9/24/2017,3/4/2019,UNITED STATES,US,USA,2017,2019,720482,99999
720483-99999,MARSHALL MEM MUNI,39.096,-93.203,US,MO,12/2/2014,1/7/2020,UNITED STATES,US,USA,2014,2020,720483,99999
720484-99999,MEXICO MEM,39.158,-91.818,US,MO,4/26/2016,1/7/2020,UNITED STATES,US,USA,2016,2020,720484,99999
720487-99999,WARSAW MUNI,38.347,-93.345,US,MO,9/8/2017,9/25/2019,UNITED STATES,US,USA,2017,2019,720487,99999
720488-99999,SIKESTON MEM MUNI,36.899,-89.562,US,MO,1/28/2015,1/7/2020,UNITED STATES,US,USA,2015,2020,720488,99999
720493-54758,NEWPORT AP,44.883,-72.233,US,VT,1/1/2009,1/9/2020,UNITED STATES,US,USA,2009,2020,720493,54758
720504-99999,TALLADEGA MUNI,33.57,-86.051,US,AL,1/6/2012,1/7/2020,UNITED STATES,US,USA,2012,2020,720504,99999
720507-99999,BESSEMER AIPORT,33.313,-86.926,US,AL,7/14/2016,1/7/2020,UNITED STATES,US,USA,2016,2020,720507,99999
720508-99999,MERKEL FLD SYLACAUGA MUNI,33.172,-86.306,US,AL,1/14/2014,1/7/2020,UNITED STATES,US,USA,2014,2020,720508,99999
720516-99999,AFTON MUNI,42.711,-110.942,US,WY,11/13/2013,1/7/2020,UNITED STATES,US,USA,2013,2020,720516,99999
720517-24165,KEMMERER MUNICIPAL AIRPORT,41.824,-110.557,US,WY,6/27/2013,1/8/2020,UNITED STATES,US,USA,2013,2020,720517,24165
720519-99999,POWELL MUNI,44.867,-108.793,US,WY,7/7/2014,1/7/2020,UNITED STATES,US,USA,2014,2020,720519,99999
720536-99999,GRANBY GRAND CO,40.09,-105.917,US,CO,7/3/2017,1/7/2020,UNITED STATES,US,USA,2017,2020,720536,99999
720541-53806,OXFORD UNIV,34.383,-89.55,US,MS,1/1/2009,1/8/2020,UNITED STATES,US,USA,2009,2020,720541,53806
720551-99999,MINDEN TAHOE AIRPORT,39,-119.751,US,NV,5/23/2014,1/7/2020,UNITED STATES,US,USA,2014,2020,720551,99999
720553-99999,PORT AUTH DOWNTN MANHATTAN WALL ST HEL,40.701,-74.009,US,NY,7/20/2016,1/7/2020,UNITED STATES,US,USA,2016,2020,720553,99999
720565-99999,HEBER CITY MUNICIPAL AIRPORT,40.482,-111.429,US,UT,4/12/2010,1/7/2020,UNITED STATES,US,USA,2010,2020,720565,99999
720567-24180,BRIGHAM CITY AIRPORT,41.552,-112.062,US,UT,7/24/2014,1/8/2020,UNITED STATES,US,USA,2014,2020,720567,24180
720569-99999,KANAB MUNI,37.011,-112.531,US,UT,8/13/2013,1/7/2020,UNITED STATES,US,USA,2013,2020,720569,99999
720572-99999,BOLINDER FIELD TOOELE VALLEY,40.612,-112.351,US,UT,5/6/2015,1/7/2020,UNITED STATES,US,USA,2015,2020,720572,99999
720619-99999,FRANCIS E WARREN AFB HELIPORT,41.133,-104.867,US,WY,4/23/2009,1/7/2020,UNITED STATES,US,USA,2009,2020,720619,99999
720642-99999,CHEYENNE MTN AS,38.75,-104.85,US,CO,11/20/2012,1/6/2020,UNITED STATES,US,USA,2012,2020,720642,99999
720643-54940,FOREST CITY MUNICIPAL AIRPORT,43.235,-93.624,US,IA,7/14/2009,1/8/2020,UNITED STATES,US,USA,2009,2020,720643,54940
720681-99999,CALAVERAS CO MAURY RASMUSSEN FLD,38.146,-120.648,US,CA,5/26/2016,1/7/2020,UNITED STATES,US,USA,2016,2020,720681,99999
720684-99999,PHIFER AFLD,42.05,-104.933,US,WY,3/31/2016,12/31/2019,UNITED STATES,US,USA,2016,2019,720684,99999
720687-99999,HEMET RYAN,33.733,-117.017,US,CA,11/21/2019,1/7/2020,UNITED STATES,US,USA,2019,2020,720687,99999
720701-54942,OSCEOLA MUNICIPAL AIRPORT,41.052,-93.689,US,IA,3/4/2010,1/8/2020,UNITED STATES,US,USA,2010,2020,720701,54942
720705-99999,JAMES A RHODES,38.981,-82.578,US,OH,5/2/2019,1/7/2020,UNITED STATES,US,USA,2019,2020,720705,99999
720709-99999,PUTNAM COUNTY AIRPORT,41.036,-83.982,US,OH,9/9/2016,1/7/2020,UNITED STATES,US,USA,2016,2020,720709,99999
720724-99999,BELEN RGNL ARPT,34.646,-106.836,US,NM,5/3/2010,1/7/2020,UNITED STATES,US,USA,2010,2020,720724,99999
720732-99999,MUSTANG ISLAND A85A,27.733,-96.183,US,TX,5/13/2010,1/7/2020,UNITED STATES,US,USA,2010,2020,720732,99999
720735-73805,NORTHWEST FLORIDA BEACHES INTL ARPT,30.349,-85.788,US,FL,3/1/2011,1/8/2020,UNITED STATES,US,USA,2011,2020,720735,73805
720747-99999,ELK MOUNTAIN,41.733,-106.467,US,WY,9/14/2010,11/26/2019,UNITED STATES,US,USA,2010,2019,720747,99999
720749-24255,WHIDBEY ISLAND NAS,48.35,-122.667,US,WA,1/1/2005,1/8/2020,UNITED STATES,US,USA,2005,2020,720749,24255
720759-99999,RAVALLI CO,46.251,-114.125,US,MT,4/10/2019,1/7/2020,UNITED STATES,US,USA,2019,2020,720759,99999
720775-99999,ELLINGTON,35.507,-86.804,US,TN,4/3/2018,1/7/2020,UNITED STATES,US,USA,2018,2020,720775,99999
720776-99999,HESLER NOBLE FLD,31.673,-89.172,US,MS,11/18/2012,1/7/2020,UNITED STATES,US,USA,2012,2020,720776,99999
720777-99999,LAWRENCEVILLE BRUNSWICK MUNI,36.773,-77.794,US,VA,6/25/2014,1/7/2020,UNITED STATES,US,USA,2014,2020,720777,99999
720781-99999,LYONS RICE CO MUNI,38.343,-98.227,US,KS,7/19/2018,1/7/2020,UNITED STATES,US,USA,2018,2020,720781,99999
720806-99999,PANOLA CO SHARPE FLD,32.176,-94.299,US,TX,9/20/2019,1/7/2020,UNITED STATES,US,USA,2019,2020,720806,99999
720835-99999,MADELINE ISLAND,46.789,-90.759,US,WI,11/11/2016,1/7/2020,UNITED STATES,US,USA,2016,2020,720835,99999
720895-99999,GLEN ULLIN REGIONAL,46.813,-101.86,US,ND,10/16/2013,1/7/2020,UNITED STATES,US,USA,2013,2020,720895,99999
720897-99999,MONROE WALTON CO,33.782,-83.693,US,GA,8/17/2017,1/7/2020,UNITED STATES,US,USA,2017,2020,720897,99999
720907-99999,CAMPBELL CO,36.335,-84.162,US,TN,6/8/2015,1/7/2020,UNITED STATES,US,USA,2015,2020,720907,99999
720952-99999,GRAY BUTTE FLD,34.564,-117.675,US,CA,8/25/2011,1/7/2020,UNITED STATES,US,USA,2011,2020,720952,99999
720963-99999,MCGREGOR RANGE BASE CAMP,32.079,-106.153,US,NM,4/29/2010,1/6/2019,UNITED STATES,US,USA,2010,2019,720963,99999
720965-13910,DYESS AIR FORCE BASE,32.433,-99.85,US,TX,1/3/2005,1/8/2020,UNITED STATES,US,USA,2005,2020,720965,13910
720972-99999,ST MARY HOSPITAL HELIPORT,44.017,-92.483,US,MN,12/1/2011,1/7/2020,UNITED STATES,US,USA,2011,2020,720972,99999
720977-99999,ALPHA (BURNS),41.333,-104.267,US,WY,2/26/2013,12/16/2019,UNITED STATES,US,USA,2013,2019,720977,99999
720978-99999,BRAVO (PINE BLUFFS),41.517,-104,US,NE,2/26/2013,1/7/2020,UNITED STATES,US,USA,2013,2020,720978,99999
720979-99999,CHARLIE (GERING),41.583,-103.667,US,NE,2/26/2013,1/7/2020,UNITED STATES,US,USA,2013,2020,720979,99999
720981-99999,DELTA (KIMBALL),41.367,-103.8,US,NE,7/31/2013,11/20/2019,UNITED STATES,US,USA,2013,2019,720981,99999
720982-99999,ECHO (PINE BLUFFS),41.117,-103.983,US,NE,12/18/2013,1/7/2020,UNITED STATES,US,USA,2013,2020,720982,99999
720983-99999,FOXTROT (DIX),41.367,-103.483,US,NE,12/15/2014,12/22/2019,UNITED STATES,US,USA,2014,2019,720983,99999
720984-99999,GOLF (SIDNEY),41.217,-103.1,US,NE,5/14/2014,1/7/2020,UNITED STATES,US,USA,2014,2020,720984,99999
720985-99999,HOTEL (GURLEY),41.317,-102.833,US,NE,8/16/2013,1/7/2020,UNITED STATES,US,USA,2013,2020,720985,99999
720986-99999,INDIA (SIDNEY),41.05,-102.867,US,NE,8/28/2013,11/29/2019,UNITED STATES,US,USA,2013,2019,720986,99999
720987-99999,JULIET (PEETZ),40.967,-103.2,US,CO,8/29/2013,1/7/2020,UNITED STATES,US,USA,2013,2020,720987,99999
720988-99999,KILO (DIX),41.133,-103.483,US,NE,12/15/2014,1/7/2020,UNITED STATES,US,USA,2014,2020,720988,99999
720989-99999,LIMA (GROVER),40.917,-103.7,US,CO,12/15/2014,1/7/2020,UNITED STATES,US,USA,2014,2020,720989,99999
720991-99999,MIKE (HAXTUN),40.7,-103.483,US,CO,7/2/2012,1/7/2020,UNITED STATES,US,USA,2012,2020,720991,99999
720992-99999,NOVEMBER (GROVER),40.633,-103.833,US,CO,12/15/2014,12/16/2019,UNITED STATES,US,USA,2014,2019,720992,99999
720993-99999,OSCAR (GROVER),40.883,-104,US,CO,2/26/2013,1/7/2020,UNITED STATES,US,USA,2013,2020,720993,99999
720994-99999,ALPHA (RAYNESFORD),47.283,-110.8,US,MT,10/25/2013,1/6/2020,UNITED STATES,US,USA,2013,2020,720994,99999
720995-99999,BRAVO (GEYSER),47.283,-110.367,US,MT,9/20/2012,1/7/2020,UNITED STATES,US,USA,2012,2020,720995,99999
720996-99999,CHARLIE (STANFORD),47.1,-110.167,US,MT,6/1/2012,1/7/2020,UNITED STATES,US,USA,2012,2020,720996,99999
720997-99999,DELTA (DENTON),47.383,-109.817,US,MT,10/25/2013,1/7/2020,UNITED STATES,US,USA,2013,2020,720997,99999
720998-99999,ECHO (WINIFRED),47.45,-109.417,US,MT,7/17/2012,1/7/2020,UNITED STATES,US,USA,2012,2020,720998,99999
720999-99999,FOXTROT (AUGUSTA),47.6,-112.317,US,MT,6/14/2012,1/7/2020,UNITED STATES,US,USA,2012,2020,720999,99999
721001-99999,GOLF (SIMMS),47.333,-112.1,US,MT,10/25/2013,1/7/2020,UNITED STATES,US,USA,2013,2020,721001,99999
721002-99999,HOTEL (FAIRFIELD),47.7,-111.95,US,MT,6/25/2013,1/7/2020,UNITED STATES,US,USA,2013,2020,721002,99999
721003-99999,INDIA (ULM),47.317,-111.467,US,MT,9/20/2012,1/7/2020,UNITED STATES,US,USA,2012,2020,721003,99999
721004-99999,JULIE (POWER),47.75,-111.55,US,MT,5/4/2012,1/7/2020,UNITED STATES,US,USA,2012,2020,721004,99999
721005-99999,KILO (HARLOWTOWN),46.45,-109.8,US,MT,9/21/2012,1/7/2020,UNITED STATES,US,USA,2012,2020,721005,99999
721006-99999,LIMA (JUDITH GAP),46.7,-109.733,US,MT,6/7/2012,1/7/2020,UNITED STATES,US,USA,2012,2020,721006,99999
721007-99999,MIKE (MOORE),47.017,-109.633,US,MT,6/14/2012,1/7/2020,UNITED STATES,US,USA,2012,2020,721007,99999
721008-99999,NOVEMBER (GRASS RANGE),47.067,-109.033,US,MT,6/19/2012,1/7/2020,UNITED STATES,US,USA,2012,2020,721008,99999
721009-99999,OSCAR (ROY),47.333,-108.933,US,MT,10/25/2013,1/7/2020,UNITED STATES,US,USA,2013,2020,721009,99999
721011-99999,ALPHA (BALFOUR),47.967,-100.581,US,ND,11/25/2014,1/7/2020,UNITED STATES,US,USA,2014,2020,721011,99999
721012-99999,BRAVO (VELVA),47.909,-100.927,US,ND,10/30/2012,1/7/2020,UNITED STATES,US,USA,2012,2020,721012,99999
721013-99999,CHARLIE (RUSO),47.714,-101.01,US,ND,9/26/2012,1/7/2020,UNITED STATES,US,USA,2012,2020,721013,99999
721014-99999,DELTA (MAX),47.795,-101.299,US,ND,10/31/2012,1/7/2020,UNITED STATES,US,USA,2012,2020,721014,99999
721015-99999,ECHO (RYDER),47.751,-101.674,US,ND,11/1/2012,1/7/2020,UNITED STATES,US,USA,2012,2020,721015,99999
721016-99999,FOXTROT (RYDER 2),47.896,-101.674,US,ND,8/21/2012,1/7/2020,UNITED STATES,US,USA,2012,2020,721016,99999
721017-99999,GOLF (PLAZA),48.12,-101.96,US,ND,10/24/2012,1/7/2020,UNITED STATES,US,USA,2012,2020,721017,99999
721018-99999,HOTEL (PARSHALL),47.974,-102.223,US,ND,8/21/2012,1/7/2020,UNITED STATES,US,USA,2012,2020,721018,99999
721019-99999,INDIA (PALERMO),48.345,-102.304,US,ND,8/23/2012,1/7/2020,UNITED STATES,US,USA,2012,2020,721019,99999
721021-99999,JULIET (DONNYBROOK),48.412,-101.892,US,ND,10/2/2012,1/7/2020,UNITED STATES,US,USA,2012,2020,721021,99999
721022-99999,KILO (DONNYBROOK 2),48.551,-102.12,US,ND,9/27/2012,11/15/2019,UNITED STATES,US,USA,2012,2019,721022,99999
721024-99999,MIKE (KENMARE),48.673,-101.882,US,ND,9/25/2012,1/7/2020,UNITED STATES,US,USA,2012,2020,721024,99999
721026-99999,OSCAR (ANTLER),48.825,-101.283,US,ND,9/26/2012,1/7/2020,UNITED STATES,US,USA,2012,2020,721026,99999
721028-99999,MIDDLEBURY STATE AIRPORT,43.985,-73.095,US,VT,2/27/2012,1/7/2020,UNITED STATES,US,USA,2012,2020,721028,99999
721041-99999,MARCO ISLAND,25.995,-81.673,US,FL,7/26/2012,1/7/2020,UNITED STATES,US,USA,2012,2020,721041,99999
721043-99999,ATHENS MUNI,32.164,-95.828,US,TX,8/13/2012,1/7/2020,UNITED STATES,US,USA,2012,2020,721043,99999
722003-54930,STANTON AIRFIELD,44.476,-93.016,US,MN,1/1/2006,1/8/2020,UNITED STATES,US,USA,2006,2020,722003,54930
722004-54922,HARRY STERN AIRPORT,46.244,-96.607,US,ND,1/1/2006,1/8/2020,UNITED STATES,US,USA,2006,2020,722004,54922
722005-99999,COFFEY CO,38.302,-95.725,US,KS,4/27/2005,9/17/2019,UNITED STATES,US,USA,2005,2019,722005,99999
722006-54926,QUENTIN AANENSON FIELD AIRPORT,43.621,-96.216,US,MN,1/1/2006,1/8/2020,UNITED STATES,US,USA,2006,2020,722006,54926
722007-54828,TUSCOLA AREA AIRPORT,43.459,-83.446,US,MI,2/1/2005,1/8/2020,UNITED STATES,US,USA,2005,2020,722007,54828
722008-12995,MUSTANG BEACH AIRPORT,27.812,-97.089,US,TX,1/1/2006,1/8/2020,UNITED STATES,US,USA,2006,2020,722008,12995
722010-12836,KEY WEST INTERNATIONAL AIRPORT,24.557,-81.755,US,FL,1/1/1973,1/8/2020,UNITED STATES,US,USA,1973,2020,722010,12836
722011-92813,KISSIMMEE GATEWAY AIRPORT,28.29,-81.437,US,FL,1/1/2006,1/8/2020,UNITED STATES,US,USA,2006,2020,722011,92813
722014-12818,HERNANDO COUNTY AIRPORT,28.474,-82.454,US,FL,1/1/2006,1/8/2020,UNITED STATES,US,USA,2006,2020,722014,12818
722015-12850,KEY WEST NAS,24.583,-81.683,US,FL,1/1/1973,1/8/2020,UNITED STATES,US,USA,1973,2020,722015,12850
722016-12896,THE FL KEYS MARATHON ARPT,24.726,-81.052,US,FL,1/1/2006,1/8/2020,UNITED STATES,US,USA,2006,2020,722016,12896
722020-12839,MIAMI INTERNATIONAL AIRPORT,25.788,-80.317,US,FL,1/1/1973,1/8/2020,UNITED STATES,US,USA,1973,2020,722020,12839
722021-92816,VANDENBERG AIRPORT,28.014,-82.345,US,FL,1/1/2005,1/8/2020,UNITED STATES,US,USA,2005,2020,722021,92816
722022-12803,BOCA RATON AIRPORT,26.378,-80.108,US,FL,1/1/2006,1/8/2020,UNITED STATES,US,USA,2006,2020,722022,12803
722024-12882,OPA LOCKA AIRPORT,25.907,-80.28,US,FL,1/1/2006,1/8/2020,UNITED STATES,US,USA,2006,2020,722024,12882
722026-12826,HOMESTEAD AFB AIRPORT,25.483,-80.383,US,FL,2/1/1943,1/8/2020,UNITED STATES,US,USA,1943,2020,722026,12826
722029-12888,KENDALL-TAMIAMI EXEC ARPT,25.648,-80.433,US,FL,1/1/2006,1/8/2020,UNITED STATES,US,USA,2006,2020,722029,12888
722030-12844,PALM BEACH INTERNATIONAL AIRPORT,26.685,-80.099,US,FL,2/6/1943,1/8/2020,UNITED STATES,US,USA,1943,2020,722030,12844
722031-63839,FOLSOM FIELD AP,34.269,-86.858,US,AL,1/1/2006,1/8/2020,UNITED STATES,US,USA,2006,2020,722031,63839
722032-54916,WASECA MUNICIPAL AIRPORT,44.074,-93.553,US,MN,1/1/2006,1/8/2020,UNITED STATES,US,USA,2006,2020,722032,54916
722034-12812,CHARLOTTE COUNTY AIRPORT,26.917,-81.991,US,FL,1/1/2006,1/9/2020,UNITED STATES,US,USA,2006,2020,722034,12812
722037-92809,NORTH PERRY AIRPORT,25.999,-80.241,US,FL,1/1/2006,1/8/2020,UNITED STATES,US,USA,2006,2020,722037,92809
722038-12897,NAPLES MUNICIPAL AIRPORT,26.155,-81.775,US,FL,1/1/1999,1/8/2020,UNITED STATES,US,USA,1999,2020,722038,12897
722039-12885,FT LAUDER EXECUTIVE ARPT,26.197,-80.171,US,FL,1/1/2006,1/8/2020,UNITED STATES,US,USA,2006,2020,722039,12885
722040-12838,MELBOURNE INTL AP,28.101,-80.644,US,FL,11/13/1974,1/8/2020,UNITED STATES,US,USA,1974,2020,722040,12838
722041-12993,SOUTH LAFOURCHE AIRPORT,29.445,-90.261,US,LA,1/19/2006,1/8/2020,UNITED STATES,US,USA,2006,2020,722041,12993
722042-53978,WOOD COUNTY AIRPORT MINEOLA,32.742,-95.496,US,TX,1/1/2006,1/8/2020,UNITED STATES,US,USA,2006,2020,722042,53978
722044-53930,ADA MUNICIPAL AIRPORT,34.804,-96.671,US,OK,1/1/2006,1/8/2020,UNITED STATES,US,USA,2006,2020,722044,53930
722046-12898,SPACE COAST REGIONAL AIRPORT,28.517,-80.8,US,FL,1/1/2006,1/8/2020,UNITED STATES,US,USA,2006,2020,722046,12898
722049-92805,POMPANO BEACH AIRPARK ARPT,26.25,-80.108,US,FL,1/1/2006,1/8/2020,UNITED STATES,US,USA,2006,2020,722049,92805
722050-12815,ORLANDO INTERNATIONAL AIRPORT,28.434,-81.325,US,FL,5/7/1952,1/8/2020,UNITED STATES,US,USA,1952,2020,722050,12815
722051-53932,ATOKA MUNICIPAL AIRPORT,34.398,-96.148,US,OK,1/1/2005,1/8/2020,UNITED STATES,US,USA,2005,2020,722051,53932
722052-53933,ALVA REGIONAL AIRPORT,36.773,-98.67,US,OK,1/1/2006,1/8/2020,UNITED STATES,US,USA,2006,2020,722052,53933
722053-12841,EXECUTIVE AIRPORT,28.545,-81.333,US,FL,2/8/1990,1/8/2020,UNITED STATES,US,USA,1990,2020,722053,12841
722054-53959,WEST MEMPHIS MUNICIPAL APT,35.135,-90.234,US,AR,1/1/2005,1/8/2020,UNITED STATES,US,USA,2005,2020,722054,53959
722055-12861,OCALA INTERNATIONAL AIRPORT-JIM TAYLOR FIELD,29.167,-82.233,US,FL,1/1/2006,1/8/2020,UNITED STATES,US,USA,2006,2020,722055,12861
722057-12854,ORLANDO SANFORD AIRPORT,28.78,-81.244,US,FL,1/1/1973,1/8/2020,UNITED STATES,US,USA,1973,2020,722057,12854
722060-13889,JACKSONVILLE  INTERNATIONAL AIRPORT,30.495,-81.694,US,FL,1/1/1948,1/8/2020,UNITED STATES,US,USA,1948,2020,722060,13889
722062-63842,DOUGLAS MUNICIPAL AIRPORT,31.477,-82.861,US,GA,1/1/2006,1/8/2020,UNITED STATES,US,USA,2006,2020,722062,63842
722065-93837,JACKSONVILLE NAS,30.233,-81.667,US,FL,1/1/1973,1/8/2020,UNITED STATES,US,USA,1973,2020,722065,93837
722067-63823,CECIL FIELD AIRPORT,30.219,-81.876,US,FL,1/1/2006,1/8/2020,UNITED STATES,US,USA,2006,2020,722067,63823
722069-53853,DESTIN-FT.WALTON BEACH APT,30.4,-86.472,US,FL,1/1/2006,1/8/2020,UNITED STATES,US,USA,2006,2020,722069,53853
722071-53935,CHICKASHA MUNICIPAL ARPT,35.096,-97.966,US,OK,1/1/2006,1/8/2020,UNITED STATES,US,USA,2006,2020,722071,53935
722074-63840,CARMI MINICIPAL AIRPORT,38.089,-88.123,US,IL,1/1/2006,1/8/2020,UNITED STATES,US,USA,2006,2020,722074,63840
722076-94891,VERMILION COUNTY AIRPORT,40.2,-87.6,US,IL,1/1/2006,1/8/2020,UNITED STATES,US,USA,2006,2020,722076,94891
722078-53938,HALLIBURTON FIELD AIRPORT,34.471,-97.951,US,OK,1/1/2006,1/8/2020,UNITED STATES,US,USA,2006,2020,722078,53938
722079-53888,DAVIDSON COUNTY AIRPORT,35.781,-80.304,US,NC,1/1/2006,1/8/2020,UNITED STATES,US,USA,2006,2020,722079,53888
722080-13880,CHARLESTON AFB/INTERNATIONAL AIRPORT,32.899,-80.041,US,SC,1/1/1945,1/8/2020,UNITED STATES,US,USA,1945,2020,722080,13880
722081-13730,FREDERICK MUNICIPAL ARPT,39.417,-77.383,US,MD,1/1/2005,1/8/2020,UNITED STATES,US,USA,2005,2020,722081,13730
722085-93831,BEAUFORT MCAS,32.483,-80.717,US,SC,4/1/1945,1/8/2020,UNITED STATES,US,USA,1945,2020,722085,93831
722089-94959,GALESBURG MUNICIPAL ARPT,40.933,-90.433,US,IL,1/1/2006,1/8/2020,UNITED STATES,US,USA,2006,2020,722089,94959
722091-53940,CLAREMORE REGIONAL AIRPORT,36.294,-95.479,US,OK,1/1/2006,1/8/2020,UNITED STATES,US,USA,2006,2020,722091,53940
722092-53941,GROVE MUNICIPAL AIRPORT,36.605,-94.738,US,OK,1/1/2006,1/8/2020,UNITED STATES,US,USA,2006,2020,722092,53941
722094-53984,GRAND PRAIRIE MUNICIPAL AIRPORT,32.699,-97.047,US,TX,1/1/2006,1/8/2020,UNITED STATES,US,USA,2006,2020,722094,53984
722096-53127,HENDERSON EXECUTIVE ARPT,35.976,-115.133,US,NV,1/1/2006,1/8/2020,UNITED STATES,US,USA,2006,2020,722096,53127
722098-64761,EAST HAMPTON AIRPORT,40.96,-72.252,US,NY,1/1/2006,1/9/2020,UNITED STATES,US,USA,2006,2020,722098,64761
722099-53936,CHANDLER MUNICIPAL AIRPORT,35.724,-96.82,US,OK,1/1/2006,1/8/2020,UNITED STATES,US,USA,2006,2020,722099,53936
722103-12895,ST LUCIE COUNTY INTL ARPT,27.498,-80.377,US,FL,1/1/2006,1/8/2020,UNITED STATES,US,USA,2006,2020,722103,12895
722104-92806,ALBERT WHITTED AIRPORT,27.765,-82.628,US,FL,1/1/1986,1/8/2020,UNITED STATES,US,USA,1986,2020,722104,92806
722106-12835,PAGE FIELD AIRPORT,26.585,-81.861,US,FL,1/1/1943,1/8/2020,UNITED STATES,US,USA,1943,2020,722106,12835
722108-12894,SW FLORIDA INTN AIRPORT,26.536,-81.755,US,FL,1/1/2006,1/8/2020,UNITED STATES,US,USA,2006,2020,722108,12894
722110-12842,TAMPA INTERNATIONAL AIRPORT,27.962,-82.54,US,FL,8/1/1940,1/8/2020,UNITED STATES,US,USA,1940,2020,722110,12842
722112-53982,FOX STEPHENS FIELD - GILMER MINICIPAL AIRPORT,32.699,-94.949,US,TX,1/1/2006,1/8/2020,UNITED STATES,US,USA,2006,2020,722112,53982
722113-53979,GIDDINGS-LEE COUNTY AIRPORT,30.169,-96.98,US,TX,1/1/2005,1/8/2020,UNITED STATES,US,USA,2005,2020,722113,53979
722114-54901,BUFFALO MUNICIPAL AIRPORT,45.159,-93.843,US,MN,1/1/2005,1/8/2020,UNITED STATES,US,USA,2005,2020,722114,54901
722115-12871,SARASOTA/BRADENTON INTL AP,27.401,-82.559,US,FL,1/1/2006,1/8/2020,UNITED STATES,US,USA,2006,2020,722115,12871
722116-12873,ST PETE-CLWTR INTL AIRPORT,27.911,-82.688,US,FL,1/1/2006,1/8/2020,UNITED STATES,US,USA,2006,2020,722116,12873
722119-12883,LAKELAND LINDER REGIONAL AIRPORT,28,-82.05,US,FL,1/1/2006,1/8/2020,UNITED STATES,US,USA,2006,2020,722119,12883
722120-12833,CROSS CITY AIRPORT,29.633,-83.105,US,FL,12/19/1943,1/8/2020,UNITED STATES,US,USA,1943,2020,722120,12833
722123-12809,BARTOW MUNICIPAL AIRPORT,27.95,-81.783,US,FL,1/1/2005,1/8/2020,UNITED STATES,US,USA,2005,2020,722123,12809
722128-53899,LICONTN-LINCOLN CO RGNL AP,35.483,-81.161,US,NC,1/1/2006,1/8/2020,UNITED STATES,US,USA,2006,2020,722128,53899
722130-13861,WAYCROSS-WARE CO. AIRPORT,31.25,-82.4,US,GA,12/1/1942,1/8/2020,UNITED STATES,US,USA,1942,2020,722130,13861
722132-63801,CONCORD REGIONAL AIRPORT,35.39,-80.707,US,NC,1/1/2006,1/8/2020,UNITED STATES,US,USA,2006,2020,722132,63801
722133-53946,SALLISAW MUNICIPAL AIRPORT,35.438,-94.803,US,OK,1/1/2006,1/8/2020,UNITED STATES,US,USA,2006,2020,722133,53946
722134-63822,VIDALIA REGIONAL AIRPORT,32.193,-82.372,US,GA,1/1/2006,1/8/2020,UNITED STATES,US,USA,2006,2020,722134,63822
722136-53883,BRUNSWICK GOLDEN ISLES APT,31.259,-81.466,US,GA,1/1/2006,1/8/2020,UNITED STATES,US,USA,2006,2020,722136,53883
722137-13878,MALCOLM MC KINNON AIRPORT,31.152,-81.391,US,GA,1/1/1973,1/8/2020,UNITED STATES,US,USA,1973,2020,722137,13878
722138-63852,STENNIS INTERNATIONAL AIRPORT,30.368,-89.455,US,MS,1/1/2005,1/8/2020,UNITED STATES,US,USA,2005,2020,722138,63852
722140-93805,TALLAHASSEE REGIONAL AIRPORT,30.393,-84.353,US,FL,5/1/1942,1/8/2020,UNITED STATES,US,USA,1942,2020,722140,93805
722143-53975,LANCASTER AIRPORT,32.579,-96.719,US,TX,1/1/2006,1/8/2020,UNITED STATES,US,USA,2006,2020,722143,53975
722147-53817,MOULTRIE MUNICIPAL AIRPORT,31.083,-83.8,US,GA,1/1/2005,1/8/2020,UNITED STATES,US,USA,2005,2020,722147,53817
722148-63824,STANLEY COUNTY AIRPORT,35.417,-80.151,US,NC,1/1/2006,1/8/2020,UNITED STATES,US,USA,2006,2020,722148,63824
722151-14794,WESTERLY STATE AIRPORT,41.35,-71.799,US,RI,1/1/2006,1/9/2020,UNITED STATES,US,USA,2006,2020,722151,14794
722152-53957,WEST WOODWARD AIRPORT,36.437,-99.521,US,OK,1/1/2005,1/8/2020,UNITED STATES,US,USA,2005,2020,722152,53957
722154-53885,DALTON MUNICIPAL AIRPORT,34.722,-84.869,US,GA,1/1/2006,1/8/2020,UNITED STATES,US,USA,2006,2020,722154,53885
722156-53873,CARTERSVILLE AIRPORT,34.123,-84.849,US,GA,1/1/2006,1/8/2020,UNITED STATES,US,USA,2006,2020,722156,53873
722158-99999,ANNAPOLIS UNITED STATES NAVAL ACADEMY,38.99,-76.48,US,MD,5/25/2004,1/7/2020,UNITED STATES,US,USA,2004,2020,722158,99999
722159-12980,MID VALLEY AIRPORT,26.178,-97.973,US,TX,1/1/2006,1/8/2020,UNITED STATES,US,USA,2006,2020,722159,12980
722160-13869,SW GEORGIA REGIONAL ARPT,31.536,-84.194,US,GA,1/1/1973,1/8/2020,UNITED STATES,US,USA,1973,2020,722160,13869
722164-53949,OKMULGEE MUNICIPAL AIRPORT,35.668,-95.949,US,OK,1/1/2006,1/8/2020,UNITED STATES,US,USA,2006,2020,722164,53949
722165-63808,OLIVE BRANCH AIRPORT,34.979,-89.787,US,MS,1/1/2005,1/8/2020,UNITED STATES,US,USA,2005,2020,722165,63808
722166-93845,VALDOSTA REGIONAL AIRPORT,30.783,-83.277,US,GA,1/1/1948,1/8/2020,UNITED STATES,US,USA,1948,2020,722166,93845
722172-63810,EDGAR COUNTY AIRPORT,39.7,-87.669,US,IL,1/1/2006,1/8/2020,UNITED STATES,US,USA,2006,2020,722172,63810
722173-53951,PAULS VALLEY MUNI AIRPORT,34.711,-97.223,US,OK,1/1/2006,1/8/2020,UNITED STATES,US,USA,2006,2020,722173,53951
722174-23097,HALE COUNTY AIRPORT,34.167,-101.717,US,TX,1/1/2006,1/8/2020,UNITED STATES,US,USA,2006,2020,722174,23097
722175-13860,ROBINS AFB AIRPORT,32.633,-83.6,US,GA,8/7/1942,1/8/2020,UNITED STATES,US,USA,1942,2020,722175,13860
722176-53884,NEWNAN COWETA COUNTY ARPT,33.312,-84.77,US,GA,1/1/2006,1/8/2020,UNITED STATES,US,USA,2006,2020,722176,53884
722177-63811,ANDREWS-MURPHY AIRPORT,35.195,-83.865,US,NC,1/1/2006,1/8/2020,UNITED STATES,US,USA,2006,2020,722177,63811
722178-53953,ROBERT S KERR AIRPORT,35.021,-94.621,US,OK,1/1/2006,1/8/2020,UNITED STATES,US,USA,2006,2020,722178,53953
722181-13837,DANIEL FIELD AIRPORT,33.467,-82.039,US,GA,1/1/2006,1/8/2020,UNITED STATES,US,USA,2006,2020,722181,13837
722185-53838,LEE GILMER MEMORIAL ARPT,34.272,-83.83,US,GA,1/1/2006,1/8/2020,UNITED STATES,US,USA,2006,2020,722185,53838
722187-93911,SHAWNEE MUNICIPAL AIRPORT,35.357,-96.943,US,OK,1/1/2006,1/8/2020,UNITED STATES,US,USA,2006,2020,722187,93911
722188-53985,SEARCY MUNICIPAL AIRPORT,35.212,-91.737,US,AR,1/1/2006,1/8/2020,UNITED STATES,US,USA,2006,2020,722188,53985
722189-92815,WITHAM FIELD AIRPORT,27.182,-80.221,US,FL,1/1/2006,1/8/2020,UNITED STATES,US,USA,2006,2020,722189,92815
722190-13874,HARTSFIELD-JACKSON ATLANTA INTL AP,33.63,-84.442,US,GA,1/1/1973,1/8/2020,UNITED STATES,US,USA,1973,2020,722190,13874
722192-23033,AVENGER FIELD AIRPORT,32.473,-100.466,US,TX,1/1/2006,1/8/2020,UNITED STATES,US,USA,2006,2020,722192,23033
722196-53863,DEKALB-PEACHTREE AIRPORT,33.875,-84.302,US,GA,1/1/2006,1/8/2020,UNITED STATES,US,USA,2006,2020,722196,53863
722197-53819,PCHTRE CTY-FALCON FLD ARPT,33.355,-84.567,US,GA,1/1/2006,1/8/2020,UNITED STATES,US,USA,2006,2020,722197,53819
722198-63819,BOONE,36.2,-81.65,US,NC,9/2/2002,1/8/2020,UNITED STATES,US,USA,2002,2020,722198,63819
722199-53956,TAHLEQUAH MUNICIPAL ARPT,35.929,-95.004,US,OK,1/1/2006,1/8/2020,UNITED STATES,US,USA,2006,2020,722199,53956
722200-12832,APALACHICOLA MUNI AIRPORT,29.733,-85.033,US,FL,1/1/1945,1/8/2020,UNITED STATES,US,USA,1945,2020,722200,12832
722202-12985,GARNER FIELD AIRPORT,29.211,-99.744,US,TX,1/1/2006,1/8/2020,UNITED STATES,US,USA,2006,2020,722202,12985
722209-12986,CALHOUN COUNTY AIRPORT,28.654,-96.681,US,TX,1/1/2006,1/8/2020,UNITED STATES,US,USA,2006,2020,722209,12986
722210-13858,EGLIN AFB AIRPORT,30.483,-86.517,US,FL,9/10/1938,1/8/2020,UNITED STATES,US,USA,1938,2020,722210,13858
722211-94087,THOMAS COUNTY AIRPORT,41.964,-100.569,US,NE,1/1/2006,1/8/2020,UNITED STATES,US,USA,2006,2020,722211,94087
722212-92814,ST AUGUSTINE AIRPORT,29.959,-81.34,US,FL,1/1/2006,1/8/2020,UNITED STATES,US,USA,2006,2020,722212,92814
722213-12819,LEESBURG REGIONAL AIRPORT,28.821,-81.81,US,FL,1/1/2006,1/8/2020,UNITED STATES,US,USA,2006,2020,722213,12819
722215-13884,BOB SIKES AIRPORT,30.78,-86.523,US,FL,1/1/1973,1/8/2020,UNITED STATES,US,USA,1973,2020,722215,13884
722216-99999,NORTH AF AUX,33.615,-81.084,US,SC,10/24/2007,1/7/2020,UNITED STATES,US,USA,2007,2020,722216,99999
722217-63881,W H `BUD` BARRON AIRPORT,32.564,-82.985,US,GA,1/1/2006,1/8/2020,UNITED STATES,US,USA,2006,2020,722217,63881
722219-99999,SHELL AHP,31.363,-85.849,US,AL,12/11/2013,1/7/2020,UNITED STATES,US,USA,2013,2020,722219,99999
722220-99999,PENSACOLA  FL,30.483,-87.183,US,NA,9/8/2001,1/7/2020,UNITED STATES,US,USA,2001,2020,722220,99999
722223-13899,PENSACOLA REGIONAL AIRPORT,30.478,-87.187,US,FL,2/28/1990,1/8/2020,UNITED STATES,US,USA,1990,2020,722223,13899
722226-93841,WHITING FIELD NAVAL AIR STATION NORTH,30.717,-87.017,US,FL,1/1/1973,1/8/2020,UNITED STATES,US,USA,1973,2020,722226,93841
722230-13894,MOBILE REGIONAL AIRPORT,30.688,-88.246,US,AL,1/1/1973,1/8/2020,UNITED STATES,US,USA,1973,2020,722230,13894
722235-13838,MOBILE DOWNTOWN AIRPORT,30.626,-88.068,US,AL,7/1/1942,1/8/2020,UNITED STATES,US,USA,1942,2020,722235,13838
722238-63873,HANCHEY ARMY HELIPORT (FORT RUCKER),31.35,-85.667,US,AL,9/1/2006,1/8/2020,UNITED STATES,US,USA,2006,2020,722238,63873
722239-53861,LOWE ARMY HELIPORT (FORT RUCKER),31.356,-85.751,US,AL,7/17/2008,1/8/2020,UNITED STATES,US,USA,2008,2020,722239,53861
722241-54925,WAYNE MUNICIPAL AIRPORT,42.242,-96.983,US,NE,1/1/2006,1/8/2020,UNITED STATES,US,USA,2006,2020,722241,54925
722247-54785,SOMERSET AIRPORT,40.624,-74.669,US,NJ,1/1/2006,1/8/2020,UNITED STATES,US,USA,2006,2020,722247,54785
722249-63887,HOOK FIELD MUNICIPAL AIRPORT,39.531,-84.395,US,OH,10/24/2006,1/8/2020,UNITED STATES,US,USA,2006,2020,722249,63887
722250-13829,LAWSON AAF AIRPORT,32.35,-85,US,GA,5/1/1939,1/8/2020,UNITED STATES,US,USA,1939,2020,722250,13829
722251-53958,RUSTON REGIONAL AIRPORT,32.514,-92.588,US,LA,4/25/2006,1/8/2020,UNITED STATES,US,USA,2006,2020,722251,53958
722252-54923,MYERS FIELD AIRPORT,44.729,-96.266,US,MN,10/18/2006,1/8/2020,UNITED STATES,US,USA,2006,2020,722252,54923
722253-53992,MOREHOUSE MEMORIAL AIRPORT,32.756,-91.881,US,LA,10/18/2006,1/8/2020,UNITED STATES,US,USA,2006,2020,722253,53992
722255-93842,COLUMBUS METRO AIRPORT,32.516,-84.942,US,GA,1/1/1948,1/8/2020,UNITED STATES,US,USA,1948,2020,722255,93842
722256-64774,MARSHFIELD MUNICIPAL AIRPORT - GEORGE HARLOW FIELD,42.098,-70.672,US,MA,12/19/2005,1/9/2020,UNITED STATES,US,USA,2005,2020,722256,64774
722260-13895,MONTGOMERY  RGNL (DANNELLY FD) AP,32.3,-86.408,US,AL,1/1/1973,1/8/2020,UNITED STATES,US,USA,1973,2020,722260,13895
722265-13821,MAXWELL AFB AIRPORT,32.383,-86.35,US,AL,10/1/1935,1/8/2020,UNITED STATES,US,USA,1935,2020,722265,13821
722266-99999,CRAIG FLD,32.344,-86.988,US,AL,1/9/2014,1/7/2020,UNITED STATES,US,USA,2014,2020,722266,99999
722268-13839,DOTHAN REGIONAL AIRPORT,31.317,-85.45,US,AL,1/1/2006,1/8/2020,UNITED STATES,US,USA,2006,2020,722268,13839
722270-13864,DOBBINS AIR RESERVE BASE AIRPORT,33.917,-84.517,US,GA,9/1/1946,1/8/2020,UNITED STATES,US,USA,1946,2020,722270,13864
722274-54939,CENTERVILLE MUNICIPAL AIRPORT,40.684,-92.901,US,IA,5/10/2009,1/8/2020,UNITED STATES,US,USA,2009,2020,722274,54939
722275-53843,ANDALUSIA-OPP  MUNICIPAL AIRPORT,31.309,-86.394,US,AL,1/3/2006,1/8/2020,UNITED STATES,US,USA,2006,2020,722275,53843
722276-53820,MIDDLETON FIELD AIRPORT,31.416,-87.044,US,AL,1/1/2006,1/8/2020,UNITED STATES,US,USA,2006,2020,722276,53820
722279-53852,PRYOR FIELD REGIONAL ARPT,34.653,-86.945,US,AL,1/1/2006,1/8/2020,UNITED STATES,US,USA,2006,2020,722279,53852
722280-13876,BIRMINGHAM INTERNATIONAL AIRPORT,33.566,-86.745,US,AL,8/1/1942,1/8/2020,UNITED STATES,US,USA,1942,2020,722280,13876
722286-93806,TUSCALOOSA MUNICIPAL ARPT,33.212,-87.616,US,AL,1/1/1973,1/8/2020,UNITED STATES,US,USA,1973,2020,722286,93806
722287-13871,ANNISTON METROPOLITAN ARPT,33.587,-85.856,US,AL,1/1/1973,1/8/2020,UNITED STATES,US,USA,1973,2020,722287,13871
722293-99999,CAMERON,29.784,-93.3,US,LA,9/18/1981,4/16/2019,UNITED STATES,US,USA,1981,2019,722293,99999
722294-99999,GRAND CHENIER (LITTLE PECAN ISLAND ARPT),29.8,-92.804,US,LA,1/17/1987,8/30/2019,UNITED STATES,US,USA,1987,2019,722294,99999
722300-53864,SHELBY COUNTY AIRPORT,33.178,-86.782,US,AL,1/1/2002,1/8/2020,UNITED STATES,US,USA,2002,2020,722300,53864
722310-12916,LOUIS ARMSTRONG NEW ORLEANS INTL AP,29.997,-90.278,US,LA,10/1/1945,1/8/2020,UNITED STATES,US,USA,1945,2020,722310,12916
722314-53915,ACADIANA REGIONAL AIRPORT,30.038,-91.884,US,LA,1/1/2006,1/8/2020,UNITED STATES,US,USA,2006,2020,722314,53915
722315-53917,LAKEFRONT AIRPORT,30.049,-90.029,US,LA,9/1/1942,1/8/2020,UNITED STATES,US,USA,1942,2020,722315,53917
722316-12958,NEW ORLEANS NAS,29.817,-90.017,US,LA,1/1/1973,1/8/2020,UNITED STATES,US,USA,1973,2020,722316,12958
722319-53943,NATCHITOCHES REGIONAL ARPT,31.736,-93.099,US,LA,1/1/2006,1/8/2020,UNITED STATES,US,USA,2006,2020,722319,53943
722320-13970,BATON ROUGE METRO RYAN FIELD AIRPORT,30.537,-91.147,US,LA,11/15/2010,1/8/2020,UNITED STATES,US,USA,2010,2020,722320,13970
722329-12936,HARRY P WILLIAMS MEMO ARPT,29.717,-91.333,US,LA,1/1/2006,1/8/2020,UNITED STATES,US,USA,2006,2020,722329,12936
722330-53865,SLIDELL AIRPORT,30.343,-89.822,US,LA,1/1/2005,1/8/2020,UNITED STATES,US,USA,2005,2020,722330,53865
722331-54941,IOWA FALLS MUNICIPAL AIRPORT,42.471,-93.207,US,IA,10/16/2007,1/8/2020,UNITED STATES,US,USA,2007,2020,722331,54941
722332-54953,TOMAHAWK REGIONAL AIRPORT,45.469,-89.806,US,WI,1/1/2006,1/8/2020,UNITED STATES,US,USA,2006,2020,722332,54953
722336-99999,BOOTHVILLE,29.33,-89.4,US,LA,3/12/1977,12/2/2019,UNITED STATES,US,USA,1977,2019,722336,99999
722338-12994,JIM HOGG COUNTY AIRPORT,27.349,-98.737,US,TX,1/1/2006,1/8/2020,UNITED STATES,US,USA,2006,2020,722338,12994
722340-13865,KEY FIELD AIRPORT,32.335,-88.744,US,MS,3/1/1942,1/8/2020,UNITED STATES,US,USA,1942,2020,722340,13865
722341-92822,ORMOND BEACH MUNICIPAL AIRPORT,29.296,-81.113,US,FL,1/1/2006,1/7/2020,UNITED STATES,US,USA,2006,2020,722341,92822
722342-54931,TRACY MUNICIPAL AIRPORT,44.249,-95.607,US,MN,1/1/2006,1/8/2020,UNITED STATES,US,USA,2006,2020,722342,54931
722343-54826,SOUTH HAVEN AREA REGIONAL AIRPORT,42.351,-86.256,US,MI,1/1/2006,1/8/2020,UNITED STATES,US,USA,2006,2020,722343,54826
722346-54824,OWOSSO COMMUNITY AIRPORT,42.993,-84.139,US,MI,1/1/2005,1/8/2020,UNITED STATES,US,USA,2005,2020,722346,54824
722348-53808,HATTIESBURG-LAUREL RGNL AP,31.467,-89.333,US,MS,1/1/2006,1/8/2020,UNITED STATES,US,USA,2006,2020,722348,53808
722351-12953,WHARTON REGIONAL AIRPORT,29.266,-96.008,US,TX,1/1/2006,1/8/2020,UNITED STATES,US,USA,2006,2020,722351,12953
722354-13927,HAWKINS FIELD AIRPORT,32.337,-90.221,US,MS,1/1/2005,1/8/2020,UNITED STATES,US,USA,2005,2020,722354,13927
722355-93999,VICKSBURG MUNICIPAL AIRPORT,32.233,-90.933,US,MS,3/19/2013,10/16/2019,UNITED STATES,US,USA,2013,2019,722355,93999
722358-93919,MCOM/PIKE CO/J E LWS FD AP,31.183,-90.471,US,MS,1/1/1973,1/8/2020,UNITED STATES,US,USA,1973,2020,722358,93919
722361-92808,NEW SMYRNA BEACH MUNICIPAL AIRPORT,29.054,-80.948,US,FL,1/1/2006,1/8/2020,UNITED STATES,US,USA,2006,2020,722361,92808
722362-93937,SULPHUR SPRINGS MUNICIPAL AIRPORT,33.167,-95.617,US,TX,1/1/2006,1/8/2020,UNITED STATES,US,USA,2006,2020,722362,93937
722363-23098,EDWARDS COUNTY AIRPORT,29.947,-100.173,US,TX,1/1/2006,1/8/2020,UNITED STATES,US,USA,2006,2020,722363,23098
722364-23903,TUNICA MUNICIPAL AIRPORT,34.681,-90.347,US,MS,1/4/2005,1/8/2020,UNITED STATES,US,USA,2005,2020,722364,23903
722403-12968,SALT POINT,29.562,-91.526,US,LA,4/13/2006,1/8/2020,UNITED STATES,US,USA,2006,2020,722403,12968
722404-13941,CHENNAULT INTERNATIONAL AP,30.21,-93.143,US,LA,1/5/1988,1/8/2020,UNITED STATES,US,USA,1988,2020,722404,13941
722405-13976,LAFAYETTE REGIONAL AIRPORT,30.205,-91.988,US,LA,10/1/1945,1/8/2020,UNITED STATES,US,USA,1945,2020,722405,13976
722406-12927,HOUMA-TERREBONNE AIRPORT,29.566,-90.66,US,LA,1/1/2005,1/8/2020,UNITED STATES,US,USA,2005,2020,722406,12927
722410-12917,SOUTHEAST TEXAS REGIONAL AIRPORT,29.951,-94.021,US,TX,1/1/1973,1/8/2020,UNITED STATES,US,USA,1973,2020,722410,12917
722416-12971,NEW BRAUNFELS MUNICIPAL AP,29.709,-98.046,US,TX,3/17/1999,1/8/2020,UNITED STATES,US,USA,1999,2020,722416,12971
722420-12923,SCHOLES INTL AT GLSTON APT,29.273,-94.859,US,TX,1/1/1993,1/8/2020,UNITED STATES,US,USA,1993,2020,722420,12923
722427-12975,CLOVER FIELD AIRPORT,29.519,-95.242,US,TX,1/1/2006,1/8/2020,UNITED STATES,US,USA,2006,2020,722427,12975
722429-53910,HOOKS MEMORIAL AIRPT,30.068,-95.556,US,TX,1/1/2006,1/8/2020,UNITED STATES,US,USA,2006,2020,722429,53910
722430-12960,G BUSH INTERCONTINENTAL AP/HOUSTON AP,29.98,-95.36,US,TX,1/1/1973,1/8/2020,UNITED STATES,US,USA,1973,2020,722430,12960
722436-12906,ELLINGTON FIELD AIRPORT,29.617,-95.167,US,TX,7/1/1941,1/8/2020,UNITED STATES,US,USA,1941,2020,722436,12906
722440-12918,WILLIAM P. HOBBY AIRPORT,29.638,-95.282,US,TX,1/1/2005,1/8/2020,UNITED STATES,US,USA,2005,2020,722440,12918
722444-53902,MONTGOMERY COUNTY AIRPORT,30.357,-95.414,US,TX,1/1/2006,1/8/2020,UNITED STATES,US,USA,2006,2020,722444,53902
722446-93987,ANGELINA COUNTY AIRPORT,31.236,-94.754,US,TX,1/1/1973,1/8/2020,UNITED STATES,US,USA,1973,2020,722446,93987
722447-53903,HUNTSVILLE MUNICIPAL ARPT,30.744,-95.586,US,TX,1/1/2006,1/8/2020,UNITED STATES,US,USA,2006,2020,722447,53903
722448-13972,TYLER POUNDS REGIONAL ARPT,32.354,-95.403,US,TX,1/1/1973,1/8/2020,UNITED STATES,US,USA,1973,2020,722448,13972
722469-53912,CAMPBELL FLD-CORSICANA MU,32.031,-96.399,US,TX,1/1/2006,1/8/2020,UNITED STATES,US,USA,2006,2020,722469,53912
722479-53907,ARLINGTON MUNICIPAL AIRPORT,32.664,-97.094,US,TX,1/1/2006,1/8/2020,UNITED STATES,US,USA,2006,2020,722479,53907
722480-13957,SHREVEPORT REGIONAL AIRPORT,32.447,-93.824,US,LA,1/1/1973,1/8/2020,UNITED STATES,US,USA,1973,2020,722480,13957
722484-53905,SHREVEPORT DOWNTOWN ARPT,32.543,-93.745,US,LA,1/1/2000,1/8/2020,UNITED STATES,US,USA,2000,2020,722484,53905
722485-13944,BARKSDALE AIR FORCE BASE,32.5,-93.667,US,LA,3/1/1937,1/8/2020,UNITED STATES,US,USA,1937,2020,722485,13944
722486-13942,MONROE REGIONAL AIRPORT,32.516,-92.041,US,LA,10/1/1942,1/8/2020,UNITED STATES,US,USA,1942,2020,722486,13942
722487-13935,ESLER REGIONAL AIRPORT,31.395,-92.291,US,LA,7/1/1941,1/8/2020,UNITED STATES,US,USA,1941,2020,722487,13935
722489-53911,TERRELL MUNICIPAL AIRPORT,32.71,-96.267,US,TX,1/1/2006,1/8/2020,UNITED STATES,US,USA,2006,2020,722489,53911
722499-53948,A L MANGHAM JR RGNL ARPT,31.578,-94.709,US,TX,1/1/2006,1/8/2020,UNITED STATES,US,USA,2006,2020,722499,53948
722500-12919,BROWNSVILLE/S PADRE  ISLAND INTL AP,25.914,-97.423,US,TX,1/1/1947,1/8/2020,UNITED STATES,US,USA,1947,2020,722500,12919
722505-12904,VALLEY INTERNATIONAL ARPT,26.228,-97.654,US,TX,3/1/1942,1/8/2020,UNITED STATES,US,USA,1942,2020,722505,12904
722506-12959,MC ALLEN MILLER INTL ARPT,26.184,-98.254,US,TX,1/1/1973,1/8/2020,UNITED STATES,US,USA,1973,2020,722506,12959
722508-12957,PORT ISABEL-CAMERON CO APT,26.166,-97.346,US,TX,1/1/2005,1/8/2020,UNITED STATES,US,USA,2005,2020,722508,12957
722510-12924,CORPUS CHRISTI  INTERNATIONAL AIRPORT,27.774,-97.512,US,TX,8/1/1946,1/8/2020,UNITED STATES,US,USA,1946,2020,722510,12924
722515-12926,CORPUS CHRISTI NAS,27.683,-97.283,US,TX,1/1/1973,1/8/2020,UNITED STATES,US,USA,1973,2020,722515,12926
722516-12928,KINGSVILLE NAS,27.5,-97.817,US,TX,1/1/1973,1/8/2020,UNITED STATES,US,USA,1973,2020,722516,12928
722517-12932,ALICE INTERNATIONAL ARPT,27.741,-98.025,US,TX,8/1/1946,1/8/2020,UNITED STATES,US,USA,1946,2020,722517,12932
722518-12974,NAVAL AUXILIARY LANDING FD,27.9,-98.05,US,TX,3/1/2011,1/8/2020,UNITED STATES,US,USA,2011,2020,722518,12974
722520-12907,LAREDO INTERNATIONAL AIRPORT,27.533,-99.467,US,TX,11/24/2008,1/8/2020,UNITED STATES,US,USA,2008,2020,722520,12907
722523-12970,STINSON MINICIPAL AIRPORT,29.339,-98.472,US,TX,1/1/1999,1/8/2020,UNITED STATES,US,USA,1999,2020,722523,12970
722524-12972,ARANSAS COUNTY AIRPORT,28.084,-97.046,US,TX,1/1/2006,1/8/2020,UNITED STATES,US,USA,2006,2020,722524,12972
722526-12947,COTULLA-LA SALLE CO ARPT,28.457,-99.218,US,TX,1/1/1973,1/8/2020,UNITED STATES,US,USA,1973,2020,722526,12947
722527-12976,BRAZORIA COUNTY AIRPORT,29.11,-95.462,US,TX,1/1/2006,1/8/2020,UNITED STATES,US,USA,2006,2020,722527,12976
722530-12921,SAN ANTONIO INTERNATIONAL AIRPORT,29.544,-98.484,US,TX,8/14/1946,1/8/2020,UNITED STATES,US,USA,1946,2020,722530,12921
722533-12962,HONDO MUNICIPAL AIRPORT,29.36,-99.174,US,TX,9/15/1942,1/8/2020,UNITED STATES,US,USA,1942,2020,722533,12962
722535-12909,LACKLAND AIR FORCE BASE (KELLY FIELD ANNEX),29.383,-98.583,US,TX,7/7/1937,1/8/2020,UNITED STATES,US,USA,1937,2020,722535,12909
722536-12911,RANDOLPH AFB AIRPORT,29.533,-98.262,US,TX,4/1/1938,1/8/2020,UNITED STATES,US,USA,1938,2020,722536,12911
722537-12961,KRVL MUNI/LUIS SHRER FD AP,29.983,-99.083,US,TX,1/1/2006,1/8/2020,UNITED STATES,US,USA,2006,2020,722537,12961
722539-12979,SAN MARCOS MUNICIPAL ARPT,29.891,-97.864,US,TX,1/1/2006,1/8/2020,UNITED STATES,US,USA,2006,2020,722539,12979
722540-13904,AUSTIN-BERGSTROM INTL AIRPORT,30.183,-97.68,US,TX,5/24/1999,1/8/2020,UNITED STATES,US,USA,1999,2020,722540,13904
722541-53914,MC KINNEY MUNICIPAL ARPT,33.19,-96.591,US,TX,1/1/2006,1/8/2020,UNITED STATES,US,USA,2006,2020,722541,53914
722543-12977,SUGAR LAND REGIONAL ARPT,29.622,-95.657,US,TX,1/1/2006,1/8/2020,UNITED STATES,US,USA,2006,2020,722543,12977
722544-13958,AUSTIN-CAMP MABRY,30.321,-97.76,US,TX,6/2/1999,1/8/2020,UNITED STATES,US,USA,1999,2020,722544,13958
722547-53942,GEORGETOWN MUNICIPAL ARPT,30.679,-97.679,US,TX,1/1/2006,1/8/2020,UNITED STATES,US,USA,2006,2020,722547,53942
722550-12912,VICTORIA REGIONAL AIRPORT,28.861,-96.93,US,TX,11/4/1941,1/8/2020,UNITED STATES,US,USA,1941,2020,722550,12912
722552-93929,GAINESVILLE MUNICIPAL ARPT,33.651,-97.197,US,TX,1/1/2006,1/8/2020,UNITED STATES,US,USA,2006,2020,722552,93929
722555-12935,PALACIOS MUNICIPAL AIRPORT,28.725,-96.254,US,TX,8/1/1946,1/8/2020,UNITED STATES,US,USA,1946,2020,722555,12935
722560-13959,WACO REGIONAL AIRPORT,31.619,-97.228,US,TX,5/14/1942,1/8/2020,UNITED STATES,US,USA,1942,2020,722560,13959
722561-99999,TSTC WACO,31.638,-97.074,US,TX,6/5/2007,1/7/2020,UNITED STATES,US,USA,2007,2020,722561,99999
722563-53952,MC GREGOR EXECUTIVE ARPT,31.485,-97.316,US,TX,1/1/2006,1/8/2020,UNITED STATES,US,USA,2006,2020,722563,53952
722577-93984,DRAUGHON-MILLER CNTRL TX RGNL ARPT,31.15,-97.417,US,TX,1/1/2006,1/8/2020,UNITED STATES,US,USA,2006,2020,722577,93984
722580-13960,DALLAS LOVE FIELD AIRPORT,32.852,-96.856,US,TX,7/26/1946,1/8/2020,UNITED STATES,US,USA,1946,2020,722580,13960
722587-93955,COX FIELD AIRPORT,33.633,-95.45,US,TX,1/1/2006,1/8/2020,UNITED STATES,US,USA,2006,2020,722587,93955
722588-13926,MAJORS AIRPORT,33.068,-96.065,US,TX,1/1/2006,1/8/2020,UNITED STATES,US,USA,2006,2020,722588,13926
722592-99999,ANCHORAGE(WFO),61.15,-149.983,US,AK,9/24/2014,1/7/2020,UNITED STATES,US,USA,2014,2020,722592,99999
722594-53909,FORT WORTH ALLIANCE ARPT,32.973,-97.318,US,TX,1/1/2006,1/8/2020,UNITED STATES,US,USA,2006,2020,722594,53909
722595-13911,FORT WORTH NAVAL AIR STATION JRB/CARSWELL FIELD,32.767,-97.45,US,TX,12/1/1942,1/8/2020,UNITED STATES,US,USA,1942,2020,722595,13911
722597-93985,MINERAL WELLS AIRPORT,32.782,-98.06,US,TX,3/10/1948,1/8/2020,UNITED STATES,US,USA,1948,2020,722597,93985
722610-22010,DEL RIO INTERNATIONAL AIRPORT,29.378,-100.927,US,TX,5/1/1951,1/8/2020,UNITED STATES,US,USA,1951,2020,722610,22010
722615-22001,LAUGHLIN AFB AIRPORT,29.367,-100.783,US,TX,2/17/1943,1/8/2020,UNITED STATES,US,USA,1943,2020,722615,22001
722618-23091,FORT STOCKTON-PECOS CO APT,30.912,-102.917,US,TX,1/1/2005,1/8/2020,UNITED STATES,US,USA,2005,2020,722618,23091
722620-23055,GUADALUPE PASS AMOS,31.831,-104.809,US,TX,8/27/1977,1/8/2020,UNITED STATES,US,USA,1977,2020,722620,23055
722630-23034,SAN ANGELO REGIONAL/MATHS FIELD AP,31.352,-100.495,US,TX,2/15/1948,1/8/2020,UNITED STATES,US,USA,1948,2020,722630,23034
722637-93046,HEMPHILL COUNTY AIRPORT,35.9,-100.4,US,TX,1/1/2006,1/8/2020,UNITED STATES,US,USA,2006,2020,722637,93046
722640-93035,MARFA MUNICIPAL AIRPORT,30.371,-104.017,US,TX,12/1/1936,1/8/2020,UNITED STATES,US,USA,1936,2020,722640,93035
722650-23023,MIDLAND INTERNATIONAL AIRPORT,31.948,-102.209,US,TX,2/1/1948,1/8/2020,UNITED STATES,US,USA,1948,2020,722650,23023
722656-23040,WINKLER COUNTY AIRPORT,31.78,-103.202,US,TX,8/1/1946,1/8/2020,UNITED STATES,US,USA,1946,2020,722656,23040
722660-13962,ABILENE REGIONAL AIRPORT,32.411,-99.682,US,TX,8/1/1946,1/8/2020,UNITED STATES,US,USA,1946,2020,722660,13962
722666-93943,BROWNWOOD REGIONAL AIRPORT,31.8,-98.95,US,TX,1/1/2006,1/8/2020,UNITED STATES,US,USA,2006,2020,722666,93943
722670-23042,LUBBOCK INTERNATIONAL AIRPORT,33.666,-101.823,US,TX,8/10/1945,1/8/2020,UNITED STATES,US,USA,1945,2020,722670,23042
722678-23052,RATON MUNI/CREWS FIELD APT,36.741,-104.502,US,NM,9/2/1998,1/8/2020,UNITED STATES,US,USA,1998,2020,722678,23052
722680-23009,ROSWELL INTERNATIONAL AIR CENTER AP,33.308,-104.508,US,NM,7/13/1942,1/8/2020,UNITED STATES,US,USA,1942,2020,722680,23009
722683-93083,SIERRA BLANCA RGNL AIRPORT,33.45,-105.517,US,NM,1/1/2006,1/8/2020,UNITED STATES,US,USA,2006,2020,722683,93083
722686-23008,CANNON AFB AIRPORT,34.383,-103.317,US,NM,1/25/1943,1/8/2020,UNITED STATES,US,USA,1943,2020,722686,23008
722687-93033,CAVERN CITY AIR TRML ARPT,32.334,-104.258,US,NM,9/10/1942,1/8/2020,UNITED STATES,US,USA,1942,2020,722687,93033
722688-93034,LEA COUNTY REGIONAL AIRPORT,32.693,-103.213,US,NM,11/1/1942,1/8/2020,UNITED STATES,US,USA,1942,2020,722688,93034
722689-23077,CLOVIS MUNICIPAL AIRPORT,34.433,-103.083,US,NM,1/1/2006,1/8/2020,UNITED STATES,US,USA,2006,2020,722689,23077
722693-93097,ALAMOGORDO-WHITE SANDS RGL AIRPORT,32.84,-105.991,US,NM,1/1/2006,1/8/2020,UNITED STATES,US,USA,2006,2020,722693,93097
722695-93041,LAS CRUCES INTL AIRPORT,32.283,-106.917,US,NM,1/1/2006,1/8/2020,UNITED STATES,US,USA,2006,2020,722695,93041
722700-23044,EL PASO INTERNATIONAL AIRPORT,31.811,-106.376,US,TX,4/1/1941,1/8/2020,UNITED STATES,US,USA,1941,2020,722700,23044
722704-99999,BIGGS AAF / FT BLISS TEXAS USA,31.85,-106.38,US,TX,6/14/2010,1/7/2020,UNITED STATES,US,USA,2010,2020,722704,99999
722710-93045,TRH OR CONSEQCES MUNI ARPT,33.237,-107.268,US,NM,3/1/1978,1/8/2020,UNITED STATES,US,USA,1978,2020,722710,93045
722720-93026,BISBEE DOUGLAS INTL ARPT,31.458,-109.606,US,AZ,8/1/2010,1/8/2020,UNITED STATES,US,USA,2010,2020,722720,93026
722721-93063,GRANT COUNTY AIRPORT,32.633,-108.167,US,NM,1/1/2005,1/8/2020,UNITED STATES,US,USA,2005,2020,722721,93063
722725-23078,DEMING MUNICIPAL AIRPORT,32.262,-107.721,US,NM,1/1/2006,1/8/2020,UNITED STATES,US,USA,2006,2020,722725,23078
722740-23160,TUCSON INTERNATIONAL AIRPORT,32.131,-110.955,US,AZ,1/1/1973,1/8/2020,UNITED STATES,US,USA,1973,2020,722740,23160
722745-23109,DAVIS-MONTHAN AFB AIRPORT,32.167,-110.883,US,AZ,7/17/1941,1/8/2020,UNITED STATES,US,USA,1941,2020,722745,23109
722747-93084,SAFFORD REGIONAL AIRPORT,32.855,-109.635,US,AZ,1/1/2006,1/8/2020,UNITED STATES,US,USA,2006,2020,722747,93084
722749-53128,CHANDLER MUNICIPAL AIRPORT,33.269,-111.813,US,AZ,1/1/2006,1/8/2020,UNITED STATES,US,USA,2006,2020,722749,53128
722780-23183,PHOENIX SKY HARBOR INTL AIRPORT,33.428,-112.004,US,AZ,1/1/1973,1/8/2020,UNITED STATES,US,USA,1973,2020,722780,23183
722781-99999,HENRY CO,36.338,-88.383,US,TN,5/30/2014,1/7/2020,UNITED STATES,US,USA,2014,2020,722781,99999
722785-23111,LUKE AFB AIRPORT,33.55,-112.367,US,AZ,12/1/1941,1/8/2020,UNITED STATES,US,USA,1941,2020,722785,23111
722786-23104,WILLIAMS GATEWAY AIRPORT,33.3,-111.667,US,AZ,3/1/1942,1/8/2020,UNITED STATES,US,USA,1942,2020,722786,23104
722787-53126,GLENDALE MUNICIPAL AIRPORT,33.527,-112.295,US,AZ,1/1/2006,1/8/2020,UNITED STATES,US,USA,2006,2020,722787,53126
722810-23199,NAF,32.817,-115.683,US,CA,4/13/1984,1/8/2020,UNITED STATES,US,USA,1984,2020,722810,23199
722813-53146,PIONEER AIRFIELD,31.607,-110.428,US,AZ,8/7/2008,1/8/2020,UNITED STATES,US,USA,2008,2020,722813,53146
722821-53988,FULLERTON LANDING STRIP,31.022,-92.911,US,LA,1/1/2006,1/8/2020,UNITED STATES,US,USA,2006,2020,722821,53988
722860-23119,MARCH AIR RESERVE BASE,33.9,-117.25,US,CA,1/1/1933,1/8/2020,UNITED STATES,US,USA,1933,2020,722860,23119
722866-99999,SAN BERNARDINO INTL,34.095,-117.235,US,CA,1/12/2009,1/7/2020,UNITED STATES,US,USA,2009,2020,722866,99999
722868-93138,PALM SPRINGS INTL AIRPORT,33.822,-116.504,US,CA,1/1/2006,1/8/2020,UNITED STATES,US,USA,2006,2020,722868,93138
722874-93134,DOWNTOWN L.A./USC CAMPUS,34.024,-118.291,US,CA,1/1/2000,1/8/2020,UNITED STATES,US,USA,2000,2020,722874,93134
722880-23152,BURBANK-GLENDALE-PASA ARPT,34.201,-118.358,US,CA,6/1/1943,1/8/2020,UNITED STATES,US,USA,1943,2020,722880,23152
722885-93197,SANTA MONICA MUNI AIRPORT,34.016,-118.451,US,CA,1/1/2006,1/8/2020,UNITED STATES,US,USA,2006,2020,722885,93197
722886-23130,VAN NUYS AIRPORT,34.21,-118.489,US,CA,12/11/1942,1/8/2020,UNITED STATES,US,USA,1942,2020,722886,23130
722895-23243,LOMPOC AIRPORT,34.667,-120.467,US,CA,1/1/2006,1/8/2020,UNITED STATES,US,USA,2006,2020,722895,23243
722897-93206,SAN LUIS CO REGIONAL ARPT,35.237,-120.641,US,CA,1/1/2006,1/8/2020,UNITED STATES,US,USA,2006,2020,722897,93206
722900-23188,SAN DIEGO INTERNATIONAL AIRPORT,32.734,-117.183,US,CA,1/1/1942,1/8/2020,UNITED STATES,US,USA,1942,2020,722900,23188
722906-93112,NORTH ISLAND NAS,32.7,-117.2,US,CA,4/1/1945,1/8/2020,UNITED STATES,US,USA,1945,2020,722906,93112
722907-53143,GILLESPIE FIELD AIRPORT,32.826,-116.973,US,CA,1/1/2006,1/8/2020,UNITED STATES,US,USA,2006,2020,722907,53143
722909-93115,NAVAL AUXILIARY LANDING FD,32.567,-117.117,US,CA,1/1/1973,1/8/2020,UNITED STATES,US,USA,1973,2020,722909,93115
722910-93116,SAN NICOLAS ISLAND NAVAL OUTLYING FIELD,33.24,-119.458,US,CA,6/16/1943,1/8/2020,UNITED STATES,US,USA,1943,2020,722910,93116
722920-23191,CATALINA AIRPORT,33.405,-118.416,US,CA,6/12/1943,1/8/2020,UNITED STATES,US,USA,1943,2020,722920,23191
722925-93117,NALF/F. SHERMAN FLD ARPT,33.023,-118.588,US,CA,6/10/1943,1/8/2020,UNITED STATES,US,USA,1943,2020,722925,93117
722931-93107,MARINE CORPS AIR STATION,32.867,-117.133,US,CA,4/1/2005,1/8/2020,UNITED STATES,US,USA,2005,2020,722931,93107
722934-53121,OCEANSIDE MUNICIPAL ARPT,33.219,-117.349,US,CA,1/1/2006,1/8/2020,UNITED STATES,US,USA,2006,2020,722934,53121
722950-23174,LOS ANGELES INTERNATIONAL AIRPORT,33.938,-118.389,US,CA,1/1/1944,1/8/2020,UNITED STATES,US,USA,1944,2020,722950,23174
722970-23129,LONG BEACH / DAUGHERTY FIELD / AIRPORT,33.812,-118.146,US,CA,1/1/1943,1/8/2020,UNITED STATES,US,USA,1943,2020,722970,23129
722972-63878,LITCHFIELD MUNICIPAL AIRPORT,39.163,-89.675,US,IL,1/1/2006,1/8/2020,UNITED STATES,US,USA,2006,2020,722972,63878
722975-53141,LOS ALAMITOS AAF AIRPORT,33.79,-118.052,US,CA,1/1/2006,1/8/2020,UNITED STATES,US,USA,2006,2020,722975,53141
722977-93184,J. WAYNE APT-ORANGE CO APT,33.68,-117.866,US,CA,6/17/1940,1/8/2020,UNITED STATES,US,USA,1940,2020,722977,93184
723020-13748,WILMINGTON INTERNATIONAL AIRPORT,34.268,-77.9,US,NC,1/1/2005,1/8/2020,UNITED STATES,US,USA,2005,2020,723020,13748
723030-13714,POPE AFB AIRPORT,35.174,-79.009,US,NC,7/3/1937,1/8/2020,UNITED STATES,US,USA,1937,2020,723030,13714
723034-93747,MACKALL AAF AIRPORT,35.033,-79.5,US,NC,1/3/2006,1/8/2020,UNITED STATES,US,USA,2006,2020,723034,93747
723035-93740,FAYETT RGNL/GRANNIS FLD AP,34.991,-78.88,US,NC,1/1/2006,1/8/2020,UNITED STATES,US,USA,2006,2020,723035,93740
723037-93765,MICHAEL J SMITH FLD ARPT,34.733,-76.657,US,NC,1/1/2006,1/8/2020,UNITED STATES,US,USA,2006,2020,723037,93765
723046-13766,DARE COUNTY REGIONAL AIRPORT,35.917,-75.7,US,NC,1/1/2005,1/8/2020,UNITED STATES,US,USA,2005,2020,723046,13766
723055-63816,STATESVILLE MUNICIPAL ARPT,35.765,-80.957,US,NC,1/1/2006,1/8/2020,UNITED STATES,US,USA,2006,2020,723055,63816
723060-13722,RALEIGH-DURHAM INTERNATIONAL AP,35.892,-78.782,US,NC,11/1/1945,1/8/2020,UNITED STATES,US,USA,1945,2020,723060,13722
723062-99999,USMC BOMB RANGE BT-11,35.017,-76.467,US,NC,9/3/2009,1/7/2020,UNITED STATES,US,USA,2009,2020,723062,99999
723065-13783,PITT-GREENVILLE AIRPORT,35.633,-77.383,US,NC,1/1/2005,1/8/2020,UNITED STATES,US,USA,2005,2020,723065,13783
723066-13713,SEYMOUR-JOHNSON AFB AIRPORT,35.344,-77.965,US,NC,6/1/1943,1/8/2020,UNITED STATES,US,USA,1943,2020,723066,13713
723067-93726,KINSTON REGIONAL JETPORT AT STALLING FIELD,35.317,-77.633,US,NC,6/8/1973,1/8/2020,UNITED STATES,US,USA,1973,2020,723067,93726
723068-93759,ROCKY MOUNT-WILSON RGN APT,35.855,-77.893,US,NC,1/1/2006,1/8/2020,UNITED STATES,US,USA,2006,2020,723068,93759
723069-93753,ALBERT J ELLIS AIRPORT,34.833,-77.617,US,NC,1/1/2006,1/8/2020,UNITED STATES,US,USA,2006,2020,723069,93753
723070-13786,ELZ CTY CG/AIR STN RGNL AP,36.261,-76.175,US,NC,1/1/2005,1/8/2020,UNITED STATES,US,USA,2005,2020,723070,13786
723075-13769,OCEANA NAS,36.817,-76.033,US,VA,1/1/1973,1/8/2020,UNITED STATES,US,USA,1973,2020,723075,13769
723079-93796,TRI-COUNTY AIRPORT,36.298,-77.171,US,NC,1/1/2006,1/8/2020,UNITED STATES,US,USA,2006,2020,723079,93796
723080-13737,NORFOLK INTERNATIONAL AIRPORT,36.903,-76.192,US,VA,1/1/1973,1/8/2020,UNITED STATES,US,USA,1973,2020,723080,13737
723083-13763,FRANKLIN MUNICIPAL-JOHN BEVERLY ROSE AIRPORT,36.698,-76.903,US,VA,10/16/1994,1/8/2020,UNITED STATES,US,USA,1994,2020,723083,13763
723084-93775,HANOVER CO MUNICIPAL ARPT,37.708,-77.434,US,VA,1/1/2005,1/8/2020,UNITED STATES,US,USA,2005,2020,723084,93775
723085-13750,NORFOLK NAS,36.937,-76.289,US,VA,1/1/1973,1/8/2020,UNITED STATES,US,USA,1973,2020,723085,13750
723086-93741,NWPT NEWS/WIMBURG INTL APT,37.132,-76.493,US,VA,1/1/2000,1/8/2020,UNITED STATES,US,USA,2000,2020,723086,93741
723087-93735,FELKER ARMY AIRFIELD,37.133,-76.6,US,VA,11/1/1960,1/8/2020,UNITED STATES,US,USA,1960,2020,723087,93735
723090-13754,CHERRY POINT MCAS,34.9,-76.883,US,NC,1/1/1973,1/8/2020,UNITED STATES,US,USA,1973,2020,723090,13754
723095-93719,CRAVEN COUNTY REG AIRPORT,35.068,-77.048,US,NC,1/1/1973,1/8/2020,UNITED STATES,US,USA,1973,2020,723095,93719
723096-93727,JACKSONVILLE,34.708,-77.44,US,NC,1/1/1973,1/8/2020,UNITED STATES,US,USA,1973,2020,723096,93727
723097-93743,BOGUE FIELD MARINE CORPS AUXILIARY FIELD,34.683,-77.033,US,NC,5/4/1987,1/8/2020,UNITED STATES,US,USA,1987,2020,723097,93743
723098-93798,CULPEPER REGIONAL AIRPORT,38.527,-77.859,US,VA,1/1/2006,1/8/2020,UNITED STATES,US,USA,2006,2020,723098,93798
723100-13883,COLUMBIA METROPOLITAN AIRPORT,33.942,-81.118,US,SC,4/24/1942,1/8/2020,UNITED STATES,US,USA,1942,2020,723100,13883
723104-53867,COLUMBIA OWENS DOWNTOWN AP,33.971,-80.996,US,SC,1/1/2006,1/8/2020,UNITED STATES,US,USA,2006,2020,723104,53867
723106-13744,FLORENCE REGIONAL AIRPORT,34.188,-79.731,US,SC,1/1/1973,1/8/2020,UNITED STATES,US,USA,1973,2020,723106,13744
723108-13776,LUMBERTON MUNICIPAL ARPT,34.608,-79.059,US,NC,9/2/1998,1/7/2020,UNITED STATES,US,USA,1998,2020,723108,13776
723109-93782,LAURINBURG-MAXTON AIRPORT,34.792,-79.366,US,NC,1/1/2006,1/9/2020,UNITED STATES,US,USA,2006,2020,723109,93782
723110-13873,ATHENS/BEN EPPS AIRPORT,33.948,-83.328,US,GA,1/1/1973,1/8/2020,UNITED STATES,US,USA,1973,2020,723110,13873
723115-53854,ORANGEBURG MUNICIPAL ARPT,33.462,-80.858,US,SC,1/1/2006,1/8/2020,UNITED STATES,US,USA,2006,2020,723115,53854
723117-53871,RK HL/YORK CO/BRYNT FD APT,34.987,-81.058,US,SC,1/1/2006,1/8/2020,UNITED STATES,US,USA,2006,2020,723117,53871
723118-53850,OCCONEE COUNTY RGNL ARPT,34.672,-82.886,US,SC,1/1/2006,1/8/2020,UNITED STATES,US,USA,2006,2020,723118,53850
723119-13886,GREENVILLE DOWNTOWN ARPT,34.846,-82.346,US,SC,9/8/1942,1/8/2020,UNITED STATES,US,USA,1942,2020,723119,13886
723122-63889,DONALDSON CENTER AIRPORT,34.758,-82.376,US,SC,1/1/2006,1/8/2020,UNITED STATES,US,USA,2006,2020,723122,63889
723123-14886,Kings Land O' Lakes Airport,46.15,-89.217,US,WI,1/1/2006,1/9/2020,UNITED STATES,US,USA,2006,2020,723123,14886
723124-53874,GREENWOOD COUNTY AIRPORT,34.249,-82.159,US,SC,1/1/2006,1/8/2020,UNITED STATES,US,USA,2006,2020,723124,53874
723126-99999,SPARTANBURG DOWNTOWN MEM,34.916,-81.957,US,SC,4/20/2009,1/7/2020,UNITED STATES,US,USA,2009,2020,723126,99999
723139-93729,BILLY MITCHELL AIRPORT,35.233,-75.622,US,NC,1/1/1996,1/8/2020,UNITED STATES,US,USA,1996,2020,723139,93729
723140-13881,CHARLOTTE/DOUGLAS INTERNATIONAL AP,35.224,-80.955,US,NC,7/22/1941,1/8/2020,UNITED STATES,US,USA,1941,2020,723140,13881
723144-53890,RURFTON CO-MARCHMAN FLD AP,35.428,-81.935,US,NC,1/1/2006,1/8/2020,UNITED STATES,US,USA,2006,2020,723144,53890
723146-53892,ASHE COUNTY AIRPORT,36.432,-81.419,US,NC,1/1/2006,1/8/2020,UNITED STATES,US,USA,2006,2020,723146,53892
723147-53870,GASTONIA MUNICIPAL AIRPORT,35.197,-81.156,US,NC,1/1/2006,1/8/2020,UNITED STATES,US,USA,2006,2020,723147,53870
723148-63859,MORGANTON-LENOIR AIRPORT,35.821,-81.611,US,NC,1/1/2006,1/8/2020,UNITED STATES,US,USA,2006,2020,723148,63859
723156-63812,ROWAN COUNTY AIRPORT,35.646,-80.52,US,NC,1/1/2005,1/8/2020,UNITED STATES,US,USA,2005,2020,723156,63812
723160-13870,BACON COUNTY AIRPORT,31.536,-82.507,US,GA,1/1/2005,1/8/2020,UNITED STATES,US,USA,2005,2020,723160,13870
723165-63821,WILKES COUNTY AIRPORT,36.223,-81.098,US,NC,1/1/2006,1/8/2020,UNITED STATES,US,USA,2006,2020,723165,63821
723170-13723,PIEDMONT TRIAD INTERNATIONAL AIRPORT,36.097,-79.943,US,NC,11/1/1945,1/8/2020,UNITED STATES,US,USA,1945,2020,723170,13723
723171-53144,NORTH AUXILIARY AIRFIELD EDWARDS AFB,34.988,-117.865,US,CA,1/1/2006,1/8/2020,UNITED STATES,US,USA,2006,2020,723171,53144
723174-93783,BURLINGTON ALAMANCE RGL AP,36.047,-79.477,US,NC,1/1/2006,1/8/2020,UNITED STATES,US,USA,2006,2020,723174,93783
723177-63807,MOUNT AIRY/SURRY CO ARPT,36.46,-80.553,US,NC,1/1/2006,1/8/2020,UNITED STATES,US,USA,2006,2020,723177,63807
723190-93846,ANDERSON REGIONAL AIRPORT,34.498,-82.71,US,SC,1/1/2005,1/8/2020,UNITED STATES,US,USA,2005,2020,723190,93846
723193-93807,SMITH REYNOLDS AIRPORT,36.134,-80.222,US,NC,2/8/1990,1/8/2020,UNITED STATES,US,USA,1990,2020,723193,93807
723194-53872,MONROE AIRPORT,35.017,-80.621,US,NC,1/1/2006,1/8/2020,UNITED STATES,US,USA,2006,2020,723194,53872
723200-93801,RICHARD B RUSSELL AIRPORT,34.348,-85.161,US,GA,1/1/1978,1/8/2020,UNITED STATES,US,USA,1978,2020,723200,93801
723231-63883,REDSTONE ARMY AIRFIELD,34.679,-86.685,US,AL,1/3/2006,1/8/2020,UNITED STATES,US,USA,2006,2020,723231,63883
723235-13896,NORTH WEST ALABAMA REGIONAL AIRPORT,34.744,-87.6,US,AL,1/1/1973,1/8/2020,UNITED STATES,US,USA,1973,2020,723235,13896
723240-13882,LOVELL FIELD AIRPORT,35.034,-85.2,US,TN,1/1/1973,1/8/2020,UNITED STATES,US,USA,1973,2020,723240,13882
723260-13891,MC GHEE TYSON AIRPORT,35.818,-83.986,US,TN,1/1/1948,1/8/2020,UNITED STATES,US,USA,1948,2020,723260,13891
723264-99999,KNOXVILLE DOWNTOWN ISLAND,35.964,-83.874,US,TN,5/7/1979,1/7/2020,UNITED STATES,US,USA,1979,2020,723264,99999
723270-13897,NASHVILLE INTERNATIONAL AIRPORT,36.119,-86.689,US,TN,1/1/1951,1/8/2020,UNITED STATES,US,USA,1951,2020,723270,13897
723271-99999,JOHN C TUNE,36.182,-86.887,US,TN,12/10/2015,1/7/2020,UNITED STATES,US,USA,2015,2020,723271,99999
723273-13827,SMYRNA AIRPORT,36.009,-86.52,US,TN,1/1/2006,1/8/2020,UNITED STATES,US,USA,2006,2020,723273,13827
723284-93839,MILLINGTON MUNICIPAL AIRPORT,35.35,-89.867,US,TN,1/1/2005,1/8/2020,UNITED STATES,US,USA,2005,2020,723284,93839
723306-13825,COLUMBUS AFB AIRPORT,33.65,-88.45,US,MS,3/1/1942,1/8/2020,UNITED STATES,US,USA,1942,2020,723306,13825
723307-53893,GOLDEN TRIANGLE RGNL APT,33.45,-88.583,US,MS,1/1/2006,1/8/2020,UNITED STATES,US,USA,2006,2020,723307,53893
723320-93862,TUPELO REGIONAL AIRPORT,34.262,-88.771,US,MS,3/1/1991,1/8/2020,UNITED STATES,US,USA,1991,2020,723320,93862
723340-13893,MEMPHIS INTERNATIONAL AIRPORT,35.056,-89.987,US,TN,10/1/1946,1/8/2020,UNITED STATES,US,USA,1946,2020,723340,13893
723350-13877,TRI-CITIES REGIONAL TN/VA AIRPORT,36.48,-82.399,US,TN,1/1/2005,1/8/2020,UNITED STATES,US,USA,2005,2020,723350,13877
723403-13963,ADAMS FIELD AIRPORT,34.727,-92.239,US,AR,2/28/1990,1/8/2020,UNITED STATES,US,USA,1990,2020,723403,13963
723406-93991,WALNUT RIDGE REGIONAL ARPT,36.125,-90.924,US,AR,1/1/2005,1/8/2020,UNITED STATES,US,USA,2005,2020,723406,93991
723408-13814,ARKANSAS INTERNATIONAL AIRPORT,35.967,-89.95,US,AR,9/1/1942,1/7/2020,UNITED STATES,US,USA,1942,2020,723408,13814
723409-53869,BLYTHEVILLE MUNI AIRPORT,35.94,-89.831,US,AR,1/1/2006,1/8/2020,UNITED STATES,US,USA,2006,2020,723409,53869
723416-13925,STUTTGART MUNICIPAL ARPT,34.6,-91.574,US,AR,1/1/2006,1/8/2020,UNITED STATES,US,USA,2006,2020,723416,13925
723417-93988,GRIDER FIELD AIRPORT,34.18,-91.934,US,AR,1/1/1973,1/8/2020,UNITED STATES,US,USA,1973,2020,723417,93988
723418-13977,TEXARKANA REGIONAL AIRPORT-WEBB FIELD,33.454,-94.007,US,AR,7/29/1946,1/8/2020,UNITED STATES,US,USA,1946,2020,723418,13977
723419-93992,S. AR RGNL AT GDWIN FLD AP,33.221,-92.814,US,AR,1/1/1973,1/8/2020,UNITED STATES,US,USA,1973,2020,723419,93992
723429-53920,MUNICIPAL AIRPORT,35.258,-93.095,US,AR,1/1/2006,1/8/2020,UNITED STATES,US,USA,2006,2020,723429,53920
723435-53921,MOUNT IDA,34.547,-93.578,US,AR,1/1/2005,1/8/2020,UNITED STATES,US,USA,2005,2020,723435,53921
723436-53922,NW ARKANSAS REGIONAL ARPT,36.283,-94.3,US,AR,1/1/2006,1/8/2020,UNITED STATES,US,USA,2006,2020,723436,53922
723439-53918,OZARK REGIONAL AIRPORT,36.369,-92.47,US,AR,1/1/2006,1/8/2020,UNITED STATES,US,USA,2006,2020,723439,53918
723440-13964,FORT SMITH REGIONAL AIRPORT,35.333,-94.363,US,AR,1/1/1947,1/8/2020,UNITED STATES,US,USA,1947,2020,723440,13964
723441-54921,ALBION MUNICIPAL AIRPORT,41.73,-98.054,US,NE,1/1/2006,1/8/2020,UNITED STATES,US,USA,2006,2020,723441,54921
723443-53955,SMITH FIELD AIRPORT,36.191,-94.491,US,AR,1/1/2006,1/8/2020,UNITED STATES,US,USA,2006,2020,723443,53955
723445-93993,DRAKE FIELD AIRPORT,36.01,-94.169,US,AR,1/1/1973,1/8/2020,UNITED STATES,US,USA,1973,2020,723445,93993
723448-53934,BATESVILLE REGIONAL ARPT,35.726,-91.647,US,AR,1/1/2006,1/8/2020,UNITED STATES,US,USA,2006,2020,723448,53934
723449-53954,ROGERS MUNI-CARTER FLD APT,36.372,-94.107,US,AR,1/1/2006,1/8/2020,UNITED STATES,US,USA,2006,2020,723449,53954
723450-13971,BOONE COUNTY AIRPORT,36.267,-93.157,US,AR,1/1/2005,1/8/2020,UNITED STATES,US,USA,2005,2020,723450,13971
723484-53901,WEST PLAINS MUNICIPAL ARPT,36.878,-91.903,US,MO,1/1/2006,1/8/2020,UNITED STATES,US,USA,2006,2020,723484,53901
723495-13987,JOPLIN REGIONAL AIRPORT,37.152,-94.495,US,MO,1/1/1973,1/8/2020,UNITED STATES,US,USA,1973,2020,723495,13987
723510-13966,SHEPPARD AFB/WICHITA FALLS MUNI AP,33.979,-98.493,US,TX,4/13/1942,1/8/2020,UNITED STATES,US,USA,1942,2020,723510,13966
723520-13902,ALTUS AFB AIRPORT,34.65,-99.267,US,OK,2/1/1943,1/8/2020,UNITED STATES,US,USA,1943,2020,723520,13902
723525-93986,HOBART MUNICIPAL AIRPORT,34.989,-99.053,US,OK,1/1/1973,1/8/2020,UNITED STATES,US,USA,1973,2020,723525,93986
723530-13967,WILL ROGERS WORLD AIRPORT,35.389,-97.601,US,OK,12/14/1941,1/8/2020,UNITED STATES,US,USA,1941,2020,723530,13967
723535-13909,VANCE AIR FORCE BASE,36.333,-97.917,US,OK,1/3/2006,1/8/2020,UNITED STATES,US,USA,2006,2020,723535,13909
723536-53986,ENID WOODRING REGIONAL AIRPORT,36.383,-97.8,US,OK,1/1/2006,1/8/2020,UNITED STATES,US,USA,2006,2020,723536,53986
723537-53913,GUTHRIE MUNICIPAL AIRPORT,35.852,-97.414,US,OK,1/1/2006,1/8/2020,UNITED STATES,US,USA,2006,2020,723537,53913
723540-13919,TINKER AFB AIRPORT,35.417,-97.383,US,OK,12/14/1942,1/8/2020,UNITED STATES,US,USA,1942,2020,723540,13919
723550-13945,HENRY POST AAF AIRPORT,34.65,-98.4,US,OK,9/1/1939,1/8/2020,UNITED STATES,US,USA,1939,2020,723550,13945
723555-93940,ARDMORE MUNICIPAL AIRPORT,34.3,-97.017,US,OK,1/1/2006,1/8/2020,UNITED STATES,US,USA,2006,2020,723555,93940
723556-93953,DAVIS FIELD AIRPORT,35.657,-95.361,US,OK,1/1/2006,1/8/2020,UNITED STATES,US,USA,2006,2020,723556,93953
723560-13968,TULSA INTERNATIONAL AIRPORT,36.199,-95.887,US,OK,1/1/1947,1/8/2020,UNITED STATES,US,USA,1947,2020,723560,13968
723564-53908,RICHARD LLOYD JONES JR APT,36.039,-95.984,US,OK,1/1/2006,1/8/2020,UNITED STATES,US,USA,2006,2020,723564,53908
723566-93950,MC ALESTER REGIONAL ARPT,34.882,-95.783,US,OK,7/1/1953,1/8/2020,UNITED STATES,US,USA,1953,2020,723566,93950
723600-23051,CLAYTON  MUNICIPAL AIRPARK AIRPORT,36.449,-103.154,US,NM,8/27/1977,1/8/2020,UNITED STATES,US,USA,1977,2020,723600,23051
723620-93040,SOCORRO MUNICIPAL AP,34.067,-106.9,US,NM,6/8/2007,1/8/2020,UNITED STATES,US,USA,2007,2020,723620,93040
723625-93057,GRANTS-MILAN MUNI AIRPORT,35.165,-107.902,US,NM,1/1/1948,1/8/2020,UNITED STATES,US,USA,1948,2020,723625,93057
723627-23081,GALLUP MUNICIPAL AIRPORT,35.514,-108.794,US,NM,1/1/1973,1/8/2020,UNITED STATES,US,USA,1973,2020,723627,23081
723628-93942,CURTIS FIELD AIRPORT,31.178,-99.324,US,TX,1/1/2006,1/8/2020,UNITED STATES,US,USA,2006,2020,723628,93942
723629-53998,ORANGE COUNTY AIRPORT,30.069,-93.804,US,TX,1/1/2006,1/8/2020,UNITED STATES,US,USA,2006,2020,723629,53998
723630-23047,AMARILLO RICK HUSBAND INTL AIRPORT,35.23,-101.704,US,TX,3/1/1943,1/8/2020,UNITED STATES,US,USA,1943,2020,723630,23047
723640-99999,DONA ANA COUNTY INTL JETPORT ARPT/SANTA TERESA,31.88,-106.703,US,NM,9/11/1995,1/7/2020,UNITED STATES,US,USA,1995,2020,723640,99999
723650-23050,ALBUQUERQUE INTL SUNPORT AIRPORT,35.042,-106.616,US,NM,7/1/1941,1/8/2020,UNITED STATES,US,USA,1941,2020,723650,23050
723654-93091,LOS ALAMOS AIRPORT,35.883,-106.283,US,NM,1/1/2006,1/8/2020,UNITED STATES,US,USA,2006,2020,723654,93091
723656-23049,SANTA FE MUNICIPAL AIRPORT,35.617,-106.089,US,NM,8/1/1946,1/8/2020,UNITED STATES,US,USA,1946,2020,723656,23049
723658-23090,FOUR CORNERS REGIONAL ARPT,36.744,-108.229,US,NM,1/1/1973,1/8/2020,UNITED STATES,US,USA,1973,2020,723658,23090
723660-23007,CHILDRESS MUNICIPAL ARPT,34.427,-100.283,US,TX,1/1/2005,1/8/2020,UNITED STATES,US,USA,2005,2020,723660,23007
723676-23048,TUCUMCARI MUNICIPAL ARPT,35.182,-103.603,US,NM,8/1/1946,1/8/2020,UNITED STATES,US,USA,1946,2020,723676,23048
723677-23054,LAS VEGAS MUNICIPAL ARPT,35.654,-105.142,US,NM,8/1/1946,1/8/2020,UNITED STATES,US,USA,1946,2020,723677,23054
723700-93167,KINGMAN AIRPORT,35.258,-113.933,US,AZ,1/1/1999,1/8/2020,UNITED STATES,US,USA,1999,2020,723700,93167
723723-23184,ERNEST A. LOVE FIELD ARPT,34.652,-112.421,US,AZ,2/28/1990,1/8/2020,UNITED STATES,US,USA,1990,2020,723723,23184
723740-23194,WINSLOW-LINDBERGH REGIONAL AIRPORT,35.028,-110.721,US,AZ,1/1/1973,1/8/2020,UNITED STATES,US,USA,1973,2020,723740,23194
723754-93027,ST JOHNS INDUS AIRPK ARPT,34.518,-109.379,US,AZ,1/1/2006,1/8/2020,UNITED STATES,US,USA,2006,2020,723754,93027
723758-54928,RUSK COUNTY AIRPORT,45.497,-91.001,US,WI,6/17/2009,1/8/2020,UNITED STATES,US,USA,2009,2020,723758,54928
723759-53990,MC CURTAIN COUNTY REGIONAL AIRPORT,33.909,-94.859,US,OK,1/1/2006,1/8/2020,UNITED STATES,US,USA,2006,2020,723759,53990
723760-99999,FLAGSTAFF,35.217,-111.817,US,AZ,10/2/1998,1/7/2020,UNITED STATES,US,USA,1998,2020,723760,99999
723761-23901,CALDWELL MUNICIPAL AIRPORT,30.516,-96.704,US,TX,1/1/2006,1/8/2020,UNITED STATES,US,USA,2006,2020,723761,23901
723762-93244,SANTA YNEZ AIRPORT,34.607,-120.076,US,CA,1/5/2006,1/8/2020,UNITED STATES,US,USA,2006,2020,723762,93244
723788-53135,LAUGHLIN/BULLHEAD INTERNATIONAL AIRPORT,35.157,-114.559,US,AZ,1/1/2006,1/8/2020,UNITED STATES,US,USA,2006,2020,723788,53135
723805-23179,NEEDLES AIRPORT,34.768,-114.619,US,CA,2/17/1977,1/8/2020,UNITED STATES,US,USA,1977,2020,723805,23179
723810-23114,EDWARDS AIR FORCE BASE,34.9,-117.867,US,CA,12/1/1941,1/8/2020,UNITED STATES,US,USA,1941,2020,723810,23114
723815-23161,BARSTOW-DAGGETT AIRPORT,34.854,-116.786,US,CA,1/1/1949,1/8/2020,UNITED STATES,US,USA,1949,2020,723815,23161
723820-23182,PDLE PRODN FLT/TST AF PLT,34.629,-118.084,US,CA,1/1/1973,1/8/2020,UNITED STATES,US,USA,1973,2020,723820,23182
723825-23131,SOUTHERN CALIFORNIA LOGISTICS AIRPORT,34.583,-117.383,US,CA,1/1/1942,1/8/2020,UNITED STATES,US,USA,1942,2020,723825,23131
723830-23187,SANDBERG,34.744,-118.724,US,CA,1/1/1973,1/8/2020,UNITED STATES,US,USA,1973,2020,723830,23187
723840-23155,MEADOWS FIELD AIRPORT,35.434,-119.054,US,CA,10/1/1941,1/8/2020,UNITED STATES,US,USA,1941,2020,723840,23155
723860-23169,MCCARRAN INTERNATIONAL AIRPORT,36.072,-115.163,US,NV,1/1/1973,1/8/2020,UNITED STATES,US,USA,1973,2020,723860,23169
723890-93193,FRESNO YOSEMITE INTERNATIONAL AIRPORT,36.78,-119.719,US,CA,12/4/1941,1/8/2020,UNITED STATES,US,USA,1941,2020,723890,93193
723895-23149,PORTERVILLE MUNICIPAL ARPT,36.029,-119.063,US,CA,1/1/2006,1/8/2020,UNITED STATES,US,USA,2006,2020,723895,23149
723896-93144,VISALIA MUNICIPAL AIRPORT,36.317,-119.4,US,CA,1/1/2006,1/8/2020,UNITED STATES,US,USA,2006,2020,723896,93144
723897-99999,FRESNO CHANDLER EXECUTIVE,36.732,-119.82,US,CA,7/17/2015,1/7/2020,UNITED STATES,US,USA,2015,2020,723897,99999
723898-53119,HANFORD MUNICIPAL AIRPORT,36.319,-119.629,US,CA,1/1/2006,1/8/2020,UNITED STATES,US,USA,2006,2020,723898,53119
723910-93111,POINT MUGU,34.117,-119.117,US,CA,1/1/1973,1/8/2020,UNITED STATES,US,USA,1973,2020,723910,93111
723925-23190,SANTA BARBARA MUNICIPAL AIRPORT,34.426,-119.843,US,CA,1/1/1973,1/8/2020,UNITED STATES,US,USA,1973,2020,723925,23190
723926-23136,CAMARILLO AIRPORT,34.217,-119.083,US,CA,1/1/2005,1/8/2020,UNITED STATES,US,USA,2005,2020,723926,23136
723927-93110,OXNARD AIRPORT,34.201,-119.207,US,CA,4/1/1944,1/8/2020,UNITED STATES,US,USA,1944,2020,723927,93110
723930-93214,VANDENBERG AFB,34.717,-120.567,US,CA,1/1/2006,1/8/2020,UNITED STATES,US,USA,2006,2020,723930,93214
723940-23273,SANTA MARIA PUB/CAPT G A HANCOCK AP,34.899,-120.449,US,CA,1/1/1973,1/8/2020,UNITED STATES,US,USA,1973,2020,723940,23273
723965-93209,PASO ROBLES MUNICIPAL ARPT,35.67,-120.628,US,CA,12/1/1941,1/8/2020,UNITED STATES,US,USA,1941,2020,723965,93209
723980-93720,SALBRY-OCN CTY WICO RGNL AP,38.341,-75.513,US,MD,1/1/2005,1/8/2020,UNITED STATES,US,USA,2005,2020,723980,93720
723990-14711,HARRISBURG INTERNATIONAL AIRPORT,40.196,-76.772,US,PA,1/1/2005,1/9/2020,UNITED STATES,US,USA,2005,2020,723990,14711
724010-13740,RICHMOND INTERNATIONAL AIRPORT,37.512,-77.323,US,VA,9/24/1942,1/8/2020,UNITED STATES,US,USA,1942,2020,724010,13740
724014-93714,DINWIDDIE COUNTY AIRPORT,37.183,-77.5,US,VA,1/1/2006,1/8/2020,UNITED STATES,US,USA,2006,2020,724014,93714
724015-99999,ALLEN C PERKINSON BLACKSTONE AAF / FT PICKETT VIRGINIA USA,37.074,-77.958,US,VA,9/22/2003,1/7/2020,UNITED STATES,US,USA,2003,2020,724015,99999
724016-93736,CHARLOTTESVILLE-ALBEMARLE ARPT,38.137,-78.455,US,VA,1/1/1973,1/8/2020,UNITED STATES,US,USA,1973,2020,724016,93736
724019-93773,WAKEFIELD MUNICIPAL ARPT,36.983,-77.001,US,VA,1/1/2006,1/8/2020,UNITED STATES,US,USA,2006,2020,724019,93773
724020-93739,WALLOPS FLIGHT FACILITY AIRPORT,37.937,-75.466,US,VA,1/1/1973,1/8/2020,UNITED STATES,US,USA,1973,2020,724020,93739
724030-93738,WASHINGTON DULLES INTERNATIONAL AP,38.935,-77.447,US,VA,1/1/1973,1/8/2020,UNITED STATES,US,USA,1973,2020,724030,93738
724035-13773,QUANTICO MCAF,38.504,-77.305,US,VA,1/1/1973,1/8/2020,UNITED STATES,US,USA,1973,2020,724035,13773
724037-93728,DAVISON AAF AIRPORT,38.717,-77.183,US,VA,2/1/1957,1/9/2020,UNITED STATES,US,USA,1957,2020,724037,93728
724040-13721,NAVAL AIR STATION,38.3,-76.417,US,MD,3/1/1945,1/8/2020,UNITED STATES,US,USA,1945,2020,724040,13721
724050-13743,RONALD REAGAN WASHINGTON NATL AP,38.847,-77.035,US,VA,9/1/1936,1/8/2020,UNITED STATES,US,USA,1936,2020,724050,13743
724056-63805,MOUNTIAN EMPIRE AIRPORT,36.895,-81.35,US,VA,1/1/2006,1/8/2020,UNITED STATES,US,USA,2006,2020,724056,63805
724057-13701,PHILLIPS ARMY AIRFIELD,39.472,-76.17,US,MD,1/3/2006,1/8/2020,UNITED STATES,US,USA,2006,2020,724057,13701
724058-53818,VIRGINIA HIGHLANDS AIRPORT,36.683,-82.033,US,VA,1/1/2006,1/8/2020,UNITED STATES,US,USA,2006,2020,724058,53818
724060-93721,BALTIMORE-WASHINGTON INTL AIRPORT,39.173,-76.684,US,MD,1/1/1945,1/8/2020,UNITED STATES,US,USA,1945,2020,724060,93721
724065-99999,TIPTON,39.085,-76.759,US,MD,5/19/2005,1/7/2020,UNITED STATES,US,USA,2005,2020,724065,99999
724066-93706,HGRTWN RGNL-R.HNSON FLD AP,39.706,-77.73,US,MD,1/1/2006,1/9/2020,UNITED STATES,US,USA,2006,2020,724066,93706
724067-93744,MARTIN STATE AIRPORT,39.333,-76.417,US,MD,1/1/2006,1/8/2020,UNITED STATES,US,USA,2006,2020,724067,93744
724070-93730,ATLANTIC CITY INTERNATIONAL AIRPORT,39.452,-74.567,US,NJ,1/1/1947,1/9/2020,UNITED STATES,US,USA,1947,2020,724070,93730
724074-93780,SOUTH JERSEY REGIONAL ARPT,39.941,-74.841,US,NJ,1/1/2006,1/8/2020,UNITED STATES,US,USA,2006,2020,724074,93780
724075-13735,MILLVILLE MUNICIPAL ARPT,39.366,-75.078,US,NJ,1/1/1973,1/9/2020,UNITED STATES,US,USA,1973,2020,724075,13735
724077-54779,AEROFLEX-ANDOVER AIRPORT,41.009,-74.736,US,NJ,1/1/2006,1/8/2020,UNITED STATES,US,USA,2006,2020,724077,54779
724080-13739,PHILADELPHIA INTERNATIONAL AIRPORT,39.873,-75.227,US,PA,1/1/1973,1/8/2020,UNITED STATES,US,USA,1973,2020,724080,13739
724084-54760,MONMOUTH EXECUTIVE AIRPORT,40.183,-74.133,US,NJ,1/1/2006,1/8/2020,UNITED STATES,US,USA,2006,2020,724084,54760
724085-94732,NE PHILADELPHIA AIRPORT,40.079,-75.013,US,PA,1/1/1973,1/8/2020,UNITED STATES,US,USA,1973,2020,724085,94732
724088-13707,DOVER AFB AIRPORT,39.133,-75.467,US,DE,12/1/1942,1/8/2020,UNITED STATES,US,USA,1942,2020,724088,13707
724090-14780,NAES/MAXFIELD FIELD,40.033,-74.35,US,NJ,1/1/1973,1/8/2020,UNITED STATES,US,USA,1973,2020,724090,14780
724093-13764,SUSSEX COUNTY AIRPORT,38.69,-75.363,US,DE,1/1/2006,1/9/2020,UNITED STATES,US,USA,2006,2020,724093,13764
724094-54743,ESSEX COUNTY AIRPORT,40.876,-74.283,US,NJ,1/1/2006,1/8/2020,UNITED STATES,US,USA,2006,2020,724094,54743
724095-14792,TRENTON MERCER AIRPORT,40.277,-74.816,US,NJ,1/1/1973,1/8/2020,UNITED STATES,US,USA,1973,2020,724095,14792
724096-14706,MCGUIRE AFB AIRPORT,40.017,-74.6,US,NJ,8/1/1942,1/8/2020,UNITED STATES,US,USA,1942,2020,724096,14706
724097-54738,MORRISTOWN MUNICIPAL AIRPORT,40.8,-74.417,US,NJ,1/1/2006,1/8/2020,UNITED STATES,US,USA,2006,2020,724097,54738
724100-13733,LYNCHBURG RGNL/PRESTON GLENN FLD AP,37.321,-79.207,US,VA,1/1/1973,1/8/2020,UNITED STATES,US,USA,1973,2020,724100,13733
724105-93760,SHENANDOAH VALLEY RGNL ART,38.264,-78.896,US,VA,1/1/2006,1/8/2020,UNITED STATES,US,USA,2006,2020,724105,93760
724106-13728,DANVILLE REGIONAL AIRPORT,36.573,-79.335,US,VA,1/1/1973,1/8/2020,UNITED STATES,US,USA,1973,2020,724106,13728
724107-53895,TWIN COUNTY AIRPORT,36.766,-80.823,US,VA,1/1/2006,1/8/2020,UNITED STATES,US,USA,2006,2020,724107,53895
724110-13741,ROANOKE REGIONAL/WOODRUM FIELD AP,37.317,-79.974,US,VA,1/1/1973,1/8/2020,UNITED STATES,US,USA,1973,2020,724110,13741
724113-53881,VIRGINIA TECH AIRPORT,37.208,-80.408,US,VA,1/1/2006,1/8/2020,UNITED STATES,US,USA,2006,2020,724113,53881
