"","STNID","NAME","LAT","LON","CTRY","STATE","BEGIN","END","COUNTRY_NAME","ISO2C","ISO3C"
"1","621010-99999","MOORED BUOY",50.6,-2.933,"US","",20080721,20080721,"UNITED STATES","US","USA"
"2","621110-99999","MOORED BUOY",58.9,-0.2,"US","",20041118,20041118,"UNITED STATES","US","USA"
"3","621130-99999","MOORED BUOY",58.4,0.3,"US","",20040726,20040726,"UNITED STATES","US","USA"
"4","621160-99999","MOORED BUOY",58.1,1.8,"US","",20040829,20040829,"UNITED STATES","US","USA"
"5","621170-99999","MOORED BUOY",57.9,0.1,"US","",20040726,20040726,"UNITED STATES","US","USA"
"6","621220-99999","MOORED BUOY",56.5,2.017,"US","",20040801,20040801,"UNITED STATES","US","USA"
"7","621250-99999","MOORED BUOY",53.8,-3.8,"US","",20081204,20081204,"UNITED STATES","US","USA"
"8","621260-99999","MOORED BUOY",53.8,-3.6,"US","",20041030,20041101,"UNITED STATES","US","USA"
"9","621300-99999","MOORED BUOY",53,1.7,"US","",20041110,20041110,"UNITED STATES","US","USA"
"10","621370-99999","PLATFORM NO. 62137",57.35,1.467,"US","",20040726,20040726,"UNITED STATES","US","USA"
"11","621430-99999","MOORED BUOY",58.3,0.4,"US","",20040726,20040726,"UNITED STATES","US","USA"
"12","621500-99999","MOORED BUOY",58,0.6,"US","",20041202,20041224,"UNITED STATES","US","USA"
"13","625600-99999","MOORED BUOY",30.1,-19.4,"US","",20040304,20041109,"UNITED STATES","US","USA"
"14","625630-99999","MOORED BUOY",31.2,-13.5,"US","",20040419,20040611,"UNITED STATES","US","USA"
"15","625650-99999","MOORED BUOY",28.1,-15.1,"US","",20040128,20040820,"UNITED STATES","US","USA"
"16","625660-99999","MOORED BUOY",29.5,-14.4,"US","",20041021,20041021,"UNITED STATES","US","USA"
"17","625750-99999","MOORED BUOY",27.6,-16.1,"US","",20031204,20041004,"UNITED STATES","US","USA"
"18","625760-99999","MOORED BUOY",27.3,-18.1,"US","",20040706,20080606,"UNITED STATES","US","USA"
"19","631080-99999","MOORED BUOY",60.133,1.7,"US","",20040131,20040131,"UNITED STATES","US","USA"
"20","631100-99999","MOORED BUOY",59.5,1.517,"US","",20041227,20041227,"UNITED STATES","US","USA"
"21","690014-99999","C STN  WHITE SANDS",32.35,-106.367,"US","NM",19870101,19910611,"UNITED STATES","US","USA"
"22","690020-93218","JOLON HUNTER LIGGETT MIL RES",36,-121.233,"US","CA",19640715,19970401,"UNITED STATES","US","USA"
"23","690020-99999","JOLON HUNTER LIGGETT MIL RES",36,-121.233,"US","CA",20030702,20030801,"UNITED STATES","US","USA"
"24","690070-93217","FRITZSCHE AAF",36.683,-121.767,"US","CA",19600404,19930831,"UNITED STATES","US","USA"
"25","690090-99999","HURLBURT FLD/EXERCIS",30.433,-86.717,"US","FL",20081010,20081017,"UNITED STATES","US","USA"
"26","690110-99999","SELFRIDGE ANGB/TRAIN",42.608,-82.835,"US","MI",19430614,19920507,"UNITED STATES","US","USA"
"27","690140-93101","EL TORO MCAS",33.667,-117.733,"US","CA",19890101,19990630,"UNITED STATES","US","USA"
"28","690150-93121","TWENTY NINE PALMS",34.3,-116.167,"US","CA",19900102,20200108,"UNITED STATES","US","USA"
"29","690150-99999","TWENTYNINE PALMS",34.3,-116.167,"US","CA",19891115,19891229,"UNITED STATES","US","USA"
"30","690170-99999","IND SPRNG RANGE 63",36.533,-115.567,"US","NV",19800514,20081231,"UNITED STATES","US","USA"
"31","690174-99999","INDIAN SPRINGS RANGE",36.533,-115.567,"US","NV",19780823,19800430,"UNITED STATES","US","USA"
"32","690190-13910","ABILENE DYESS AFB",32.433,-99.85,"US","TX",19431201,20091231,"UNITED STATES","US","USA"
"33","690190-99999","DYESS AFB/ABILENE",32.417,-99.85,"US","TX",20000103,20041230,"UNITED STATES","US","USA"
"34","690200-99999","GOVERNOR HYDE",35.25,-76.167,"US","NC",19800418,19810304,"UNITED STATES","US","USA"
"35","690210-99999","ALLIGATOR BRIDGE",35.9,-76,"US","NC",19800418,19840929,"UNITED STATES","US","USA"
"36","690220-99999","ALBEMARLE BRIDGE",35.983,-76.5,"US","NC",19800418,19840929,"UNITED STATES","US","USA"
"37","690230-24255","WHIDBEY ISLAND NAS",48.35,-122.667,"US","WA",19891201,20090602,"UNITED STATES","US","USA"
"38","690240-99999","PACIFIC BEACH",47.217,-124.2,"US","WA",19800603,19851031,"UNITED STATES","US","USA"
"39","690250-99999","KITTY HAWK SCHOOL",36.1,-75.75,"US","NC",19800922,19810223,"UNITED STATES","US","USA"
"40","690260-99999","CHEBOYGAN",45.65,-84.467,"US","MI",19800611,20011023,"UNITED STATES","US","USA"
"41","690280-99999","PORT ISABEL (CGS)",26.067,-97.167,"US","TX",19820627,19831116,"UNITED STATES","US","USA"
"42","690290-99999","PORT ARANSAS",27.833,-97.067,"US","TX",19820625,20041129,"UNITED STATES","US","USA"
"43","690320-99999","BLAINE HARBOR MUNI",48.983,-122.733,"US","WA",19920416,19940303,"UNITED STATES","US","USA"
"44","690330-99999","HOOD CANAL BRIDGE",45.667,-121.533,"US","OR",19910307,20080106,"UNITED STATES","US","USA"
"45","690500-99999","FORT CHAFFEE",35.167,-94.2,"US","AR",19830119,19830119,"UNITED STATES","US","USA"
"46","690524-99999","2 CWSS TMQ-53",30.417,-86.667,"US","FL",19910315,20020516,"UNITED STATES","US","USA"
"47","690584-99999","LZ BULL / EXERCISE",33.067,-115.067,"US","CA",19990602,20010606,"UNITED STATES","US","USA"
"48","691164-99999","REDSTONE ARSENAL",34.683,-86.683,"US","AL",19771026,20010323,"UNITED STATES","US","USA"
"49","691174-99999","ABERDEEN PVNG GRND",39.467,-76.167,"US","MD",19361001,20030816,"UNITED STATES","US","USA"
"50","691324-99999","FORT BRAGG / TEST",35.15,-78.9,"US","NC",19951030,20001215,"UNITED STATES","US","USA"
"51","691334-99999","HILL/WENDOVER R GWC",41.05,-113.067,"US","UT",19910521,20030816,"UNITED STATES","US","USA"
"52","691414-99999","SPEED BAG AIRFIELD",33.267,-115.417,"US","CA",19850424,19971123,"UNITED STATES","US","USA"
"53","691484-99999","FAIRCHILD AFB / EXERCISE",47.617,-117.667,"US","WA",19840709,19950502,"UNITED STATES","US","USA"
"54","691804-99999","CAMP BLANDING",29.967,-81.983,"US","FL",19860119,19980202,"UNITED STATES","US","USA"
"55","692364-99999","FALLON NAS",39.417,-118.7,"US","NV",19781027,20020501,"UNITED STATES","US","USA"
"56","692494-99999","SUPERIOR VALLEY G R",35.333,-117.1,"US","CA",19950401,19991210,"UNITED STATES","US","USA"
"57","692534-99999","FORT CAMPBELL / TEST",36.667,87.5,"US","KY",19870427,19910405,"UNITED STATES","US","USA"
"58","692584-99999","CREECH AFB TMOS-P",36.583,-115.667,"US","NV",19831201,19910314,"UNITED STATES","US","USA"
"59","692644-99999","MUSCATATUCK TRNG CTR",39.05,-85.617,"US","IN",19970724,19970724,"UNITED STATES","US","USA"
"60","692694-99999","FOB MIAMI NTC/EXERCI",35.283,-116.35,"US","CA",19910209,20020125,"UNITED STATES","US","USA"
"61","692704-99999","MPRC-FT STEWART",32.033,-81.667,"US","GA",19850125,19980530,"UNITED STATES","US","USA"
"62","692754-99999","2 CWSS TMQ-53",30.417,-86.667,"US","FL",19840922,19950830,"UNITED STATES","US","USA"
"63","692764-99999","2 CWSS TMQ-53",30.417,-86.667,"US","FL",19840925,19850205,"UNITED STATES","US","USA"
"64","692784-99999","KING SALMON",58.667,-156.65,"US","AK",19841127,20001205,"UNITED STATES","US","USA"
"65","693254-99999","2 CWSS FMQ-22",30.417,-86.667,"US","FL",19830811,20030816,"UNITED STATES","US","USA"
"66","694300-99999","EAGLE RANGE       &",41.05,-113.067,"US","UT",19800423,19910626,"UNITED STATES","US","USA"
"67","694604-99999","YUKON TEST AREA",64.721,-146.529,"US","AK",19831011,19871010,"UNITED STATES","US","USA"
"68","695414-99999","RED PASS LAKE / NTC",35.267,-116.367,"US","CA",20010319,20080611,"UNITED STATES","US","USA"
"69","696334-99999","ORO GRANDE - EXERCISE",32.417,-105.993,"US","NM",19910304,19990625,"UNITED STATES","US","USA"
"70","696454-99999","AUX 2 / EXERCISE",32.533,-114.517,"US","AZ",19840426,19920829,"UNITED STATES","US","USA"
"71","696464-99999","TACTS AIRFIELD / EXERCISE",32.5,-114.15,"US","AZ",19900809,19960709,"UNITED STATES","US","USA"
"72","697534-99999","FORT IRWIN",35.283,-116.617,"US","CA",19850218,20080201,"UNITED STATES","US","USA"
"73","697564-99999","STOVAL AIRFIELD / EXERCISE",32.733,-113.633,"US","AZ",19830901,19970418,"UNITED STATES","US","USA"
"74","698114-99999","METMFR 29 PALMS",34.3,-116.15,"US","CA",19840216,19980618,"UNITED STATES","US","USA"
"75","698324-99999","BOGUE FIELD MCALF",34.683,-77.033,"US","NC",19960409,19960901,"UNITED STATES","US","USA"
"76","698414-99999","319 MISSILE SQ",40.5,-103.833,"US","CO",20010320,20010411,"UNITED STATES","US","USA"
"77","700001-26492","PORTAGE GLACIER",60.785,-148.839,"US","AK",20060101,20200108,"UNITED STATES","US","USA"
"78","700001-99999","PORTAGE GLACIER",60.783,-148.833,"US","AK",20040510,20051231,"UNITED STATES","US","USA"
"79","700197-26558","SELAWIK",66.6,-159.986,"US","AK",20060101,20200108,"UNITED STATES","US","USA"
"80","700197-99999","SELAWIK",66.617,-160,"US","AK",19940818,20051231,"UNITED STATES","US","USA"
"81","700260-27502","W POST-WILL ROGERS MEMORIAL AIRPORT",71.283,-156.782,"US","AK",19450101,20200108,"UNITED STATES","US","USA"
"82","700264-99999","SSDC",71.317,-155.217,"US","AK",19920807,19920807,"UNITED STATES","US","USA"
"83","700265-99999","BARROW W POST-W ROGERS ARPT",71.333,-156.633,"US","AK",19750228,19780130,"UNITED STATES","US","USA"
"84","700271-27506","BARROW POINT BARROW",71.333,-156.65,"US","AK",19740318,19750302,"UNITED STATES","US","USA"
"85","700300-27503","WAINWRIGHT AIRPORT",70.639,-159.995,"US","AK",19991102,20200108,"UNITED STATES","US","USA"
"86","700300-27508","WAINWRIGHT (DEW)",70.617,-159.85,"US","AK",19730101,19991231,"UNITED STATES","US","USA"
"87","700300-99999","WAINWRIGHT (DEW)",70.617,-159.85,"US","AK",20000101,20041231,"UNITED STATES","US","USA"
"88","700365-99999","SAGWON",69.367,-148.7,"US","AK",20130106,20130106,"UNITED STATES","US","USA"
"89","700450-27512","LONELY",70.917,-153.25,"US","AK",19730101,19890925,"UNITED STATES","US","USA"
"90","700450-99999","LONELY (DEW)",70.917,-153.233,"US","AK",20020505,20060125,"UNITED STATES","US","USA"
"91","700630-27403","OLIKTOK POW 2",70.5,-149.883,"US","AK",19730101,19990929,"UNITED STATES","US","USA"
"92","700630-99999","OLIKTOK LRRS",70.5,-149.88,"US","AK",20030811,20030811,"UNITED STATES","US","USA"
"93","700631-25715","ATKA AIRPORT",52.22,-174.206,"US","AK",20060101,20130430,"UNITED STATES","US","USA"
"94","700631-99999","ATKA",57.067,-135.367,"US","AK",20040713,20051231,"UNITED STATES","US","USA"
"95","700632-26645","BUCKLAND AIRPORT",65.983,-161.133,"US","AK",20060101,20200108,"UNITED STATES","US","USA"
"96","700632-99999","BUCKLAND",65.983,-161.15,"US","AK",20040713,20051231,"UNITED STATES","US","USA"
"97","700634-27408","UGNU-KUPRAUK AIRPORT",70.331,-149.598,"US","AK",20060101,20200108,"UNITED STATES","US","USA"
"98","700634-99999","UGNU-KUPARUK AIRPORT",70.317,-149.583,"US","AK",19810220,20051231,"UNITED STATES","US","USA"
"99","700635-26465","GALBRAITH LAKE AIRPORT",68.479,-149.49,"US","AK",20060105,20200102,"UNITED STATES","US","USA"
"100","700635-99999","GALBRAITH LAKE",68.483,-149.483,"US","AK",19750108,20051229,"UNITED STATES","US","USA"
"101","700636-27405","PRUDHOE BAY",70.25,-148.333,"US","AK",19730101,19990614,"UNITED STATES","US","USA"
"102","700637-27406","DEADHORSE AIRPORT",70.192,-148.477,"US","AK",19730101,20200108,"UNITED STATES","US","USA"
"103","700638-99999","FALSE PASS",54.85,-163.417,"US","AK",19730101,20190801,"UNITED STATES","US","USA"
"104","700639-99999","HAPPY VALLEY",69.167,-148.817,"US","AK",19740616,19780111,"UNITED STATES","US","USA"
"105","700860-27401","BARTER ISLAND AIRPORT",70.134,-143.577,"US","AK",19471001,20200108,"UNITED STATES","US","USA"
"106","700860-99999","BARTER ISLAND",70.133,-143.633,"US","AK",20000102,20041231,"UNITED STATES","US","USA"
"107","700863-99999","BARTER ISLAND LRRS",70.134,-143.577,"US","AK",19901104,19910621,"UNITED STATES","US","USA"
"108","700865-99999","BARTER ISLAND(AWOS)",70.133,-143.583,"US","AK",19731207,19961009,"UNITED STATES","US","USA"
"109","700866-99999","CHALLENGE ISLAND",70.233,-146.5,"US","AK",19750109,19810328,"UNITED STATES","US","USA"
"110","700867-99999","FRANKLIN BLUFFS",69.717,-148.683,"US","AK",19750108,19770816,"UNITED STATES","US","USA"
"111","700868-99999","ATIGUN",68.183,-149.417,"US","AK",19750112,19750401,"UNITED STATES","US","USA"
"112","700869-99999","CHANDALAR SHELF",68.067,-149.583,"US","AK",19750109,19780923,"UNITED STATES","US","USA"
"113","701040-26631","CAPE LISBURNE LRRS AIRPORT",68.867,-166.133,"US","AK",20060101,20200108,"UNITED STATES","US","USA"
"114","701040-99999","CAPE LISBURNE AFS",68.883,-166.133,"US","AK",19520829,20051231,"UNITED STATES","US","USA"
"115","701043-26623","POINT HOPE AIRPORT",68.35,-166.8,"US","AK",20060101,20200108,"UNITED STATES","US","USA"
"116","701043-99999","POINT HOPE AIRPORT",68.35,-166.8,"US","AK",19431001,20051231,"UNITED STATES","US","USA"
"117","701045-26649","RED DOG AIRPORT",68.031,-162.903,"US","AK",20060103,20200107,"UNITED STATES","US","USA"
"118","701045-99999","RED DOG",68.067,-162.833,"US","AK",19980226,20051230,"UNITED STATES","US","USA"
"119","701046-26418","CENTRAL AIRPORT",65.567,-144.765,"US","AK",20020902,20130210,"UNITED STATES","US","USA"
"120","701160-26618","WALES",65.617,-168.05,"US","AK",19430701,19771221,"UNITED STATES","US","USA"
"121","701160-99999","WALES",65.617,-168.05,"US","",20040701,20040701,"UNITED STATES","US","USA"
"122","701170-26634","TIN CITY LRRS AIRPORT",65.563,-167.921,"US","AK",20060101,20200108,"UNITED STATES","US","USA"
"123","701170-99999","TIN CITY AFS",65.567,-167.917,"US","AK",19530504,20051231,"UNITED STATES","US","USA"
"124","701190-99999","PORT CLARENCE CGS",65.254,-166.859,"US","AK",19730101,20181127,"UNITED STATES","US","USA"
"125","701195-26625","SHISHMAREF/NEW AIRPORT",66.25,-166.089,"US","AK",20060101,20200108,"UNITED STATES","US","USA"
"126","701195-99999","SHISHMAREF",66.25,-166.083,"US","AK",19831104,20051231,"UNITED STATES","US","USA"
"127","701196-99999","BOB BAKER MEM",66.976,-160.437,"US","AK",19831222,19850630,"UNITED STATES","US","USA"
"128","701210-26624","POINT LAY LRRS AIRPORT",69.733,-163.005,"US","AK",20060101,20200108,"UNITED STATES","US","USA"
"129","701210-26638","POINT LAY",69.817,-162.917,"US","AK",19730101,19991231,"UNITED STATES","US","USA"
"130","701210-99999","POINT LAY",69.817,-162.917,"US","AK",20000101,20051231,"UNITED STATES","US","USA"
"131","701213-26638","POINT LAY LIZ 2",69.733,-163.017,"US","AK",19920318,19960630,"UNITED STATES","US","USA"
"132","701213-99999","POINT LAY(DEW/AWOS)",69.733,-163.017,"US","AK",19901121,19910803,"UNITED STATES","US","USA"
"133","701330-26616","RALPH WIEN MEMORIAL AIRPORT",66.867,-162.633,"US","AK",19730101,20200108,"UNITED STATES","US","USA"
"134","701331-99999","DEERING",66.067,-162.75,"US","AK",19840402,19850612,"UNITED STATES","US","USA"
"135","701333-26643","DEERING AIRPORT",66.069,-162.764,"US","AK",19990102,20200108,"UNITED STATES","US","USA"
"136","701333-99999","DEERING",66.083,-162.75,"US","AK",19980111,19981229,"UNITED STATES","US","USA"
"137","701334-99999","KOTZEBUE",66.883,-162.6,"US","AK",19960801,19961009,"UNITED STATES","US","USA"
"138","701335-26648","NOATAK AIRPORT",67.566,-162.975,"US","AK",20060101,20200108,"UNITED STATES","US","USA"
"139","701335-99999","NOATAK",67.55,-162.967,"US","AK",19950708,20051231,"UNITED STATES","US","USA"
"140","701338-99999","CHEVAK AIRPORT",61.533,-165.583,"US","AK",20090210,20200107,"UNITED STATES","US","USA"
"141","701486-26642","KIVALINA AIRPORT",67.732,-164.548,"US","AK",20060101,20200108,"UNITED STATES","US","USA"
"142","701486-99999","KIVALINA",67.733,-164.55,"US","AK",19990114,20051231,"UNITED STATES","US","USA"
"143","701620-26508","UMIAT",69.367,-152.133,"US","AK",19460101,20130411,"UNITED STATES","US","USA"
"144","701620-99999","UMIAT",69.367,-152.133,"US","",20000101,20041126,"UNITED STATES","US","USA"
"145","701625-26542","ANAKTUVUK PASS AIRPORT",68.167,-151.767,"US","AK",20060101,20200108,"UNITED STATES","US","USA"
"146","701625-99999","ANAKTUVUK PASS",68.133,-151.733,"US","AK",19800911,20051231,"UNITED STATES","US","USA"
"147","701718-26551","AMBLER AIRPORT",67.1,-157.85,"US","AK",20060101,20200108,"UNITED STATES","US","USA"
"148","701718-99999","AMBLER",67.1,-157.85,"US","AK",19880105,20051231,"UNITED STATES","US","USA"
"149","701719-99999","SHUNGNAK",66.888,-157.162,"US","AK",19850208,19891011,"UNITED STATES","US","USA"
"150","701730-26535","INDIAN MOUNTAIN LRRS ARPT",66,-153.7,"US","AK",20050101,20200108,"UNITED STATES","US","USA"
"151","701730-99999","INDIAN MOUNTAIN AFS",66,-153.7,"US","AK",19510801,20041231,"UNITED STATES","US","USA"
"152","701740-26533","BETTLES AIRPORT",66.917,-151.515,"US","AK",19450101,20200108,"UNITED STATES","US","USA"
"153","701745-26480","CHANDALAR LAKE AIRPORT",67.511,-148.493,"US","AK",20060101,20141009,"UNITED STATES","US","USA"
"154","701745-99999","CHANDALAR LAKE",67.5,-148.483,"US","AK",19730624,20051231,"UNITED STATES","US","USA"
"155","701746-99999","DIETRICK (PRIVATE)",67.683,-149.733,"US","AK",19730825,19750729,"UNITED STATES","US","USA"
"156","701747-26467","MERRILL PASS WEST",61.25,-153.82,"US","AK",19730825,19750729,"UNITED STATES","US","USA"
"157","701747-26554","MERRILL PASS WEST",61.267,-153.8,"US","AK",20050101,20140615,"UNITED STATES","US","USA"
"158","701748-99999","PROSPECT CREEK AIRPORT",66.817,-150.65,"US","AK",19730825,20200107,"UNITED STATES","US","USA"
"159","701749-99999","WISEMAN ARPT",67.4,-150.117,"US","AK",19940819,20020803,"UNITED STATES","US","USA"
"160","701780-26529","RALPH M CALHOUN MEML ARPT",65.175,-152.107,"US","AK",19430601,20200108,"UNITED STATES","US","USA"
"161","701790-99999","FIVE MILE CAMP",65.933,-149.833,"US","AK",19771103,19850531,"UNITED STATES","US","USA"
"162","701791-99999","MANLEY HOT SPRINGS",65,-150.65,"US","AK",19431204,19891013,"UNITED STATES","US","USA"
"163","701793-26524","MANLEY HOT SPRINGS",64.999,-150.638,"US","AK",20060101,20140501,"UNITED STATES","US","USA"
"164","701793-99999","MANLEY HOT SPRINGS",65,-150.65,"US","AK",19900724,20051231,"UNITED STATES","US","USA"
"165","701795-99999","FIVE MILE CAMP",65.933,-149.833,"US","AK",19730825,19960625,"UNITED STATES","US","USA"
"166","701940-26413","FORT YUKON AIRPORT",66.567,-145.267,"US","AK",19730101,20200108,"UNITED STATES","US","USA"
"167","701940-99999","FORT YUKON",66.567,-145.267,"US","AK",20000102,20031231,"UNITED STATES","US","USA"
"168","701945-46405","ARCTIC VILLAGE AIRPORT",68.115,-145.579,"US","AK",20060101,20200108,"UNITED STATES","US","USA"
"169","701945-99999","ARCTIC VILLAGE",68.117,-145.567,"US","AK",19950708,20051231,"UNITED STATES","US","USA"
"170","701970-99999","CENTRAL",65.483,-144.667,"US","AK",20021018,20071231,"UNITED STATES","US","USA"
"171","701975-26422","EAGLE AIRPORT",64.777,-141.148,"US","AK",20060101,20200108,"UNITED STATES","US","USA"
"172","701975-99999","EAGLE AIRPORT",64.783,-141.15,"US","AK",19980408,20051231,"UNITED STATES","US","USA"
"173","701995-26628","CAPE DARBY REMOT COM OUTLT",64.55,-163.007,"US","AK",20050101,20200107,"UNITED STATES","US","USA"
"174","701995-99999","GOLOVIN AIRPORT",64.54,-163.04,"US","AK",19990114,20041231,"UNITED STATES","US","USA"
"175","702000-26617","NOME AIRPORT",64.511,-165.44,"US","AK",19400101,20200108,"UNITED STATES","US","USA"
"176","702004-99999","WHITE MOUNTAIN",64.689,-163.413,"US","AK",20111201,20200107,"UNITED STATES","US","USA"
"177","702005-26647","ST MARY'S AIRPORT",62.062,-163.3,"US","AK",20060101,20200108,"UNITED STATES","US","USA"
"178","702005-99999","ST MARYS",62.05,-163.3,"US","AK",19790408,20051231,"UNITED STATES","US","USA"
"179","702006-26502","KALTAG AIRPORT",64.327,-158.742,"US","AK",20060101,20200108,"UNITED STATES","US","USA"
"180","702006-99999","KALTAG AIRPORT",64.316,-158.73,"US","AK",19990114,20051231,"UNITED STATES","US","USA"
"181","702031-26620","MOSES POINT",64.7,-162.05,"US","AK",19430608,19790128,"UNITED STATES","US","USA"
"182","702035-26704","SAVOONGA AIRPORT",63.687,-170.493,"US","AK",20060108,20200108,"UNITED STATES","US","USA"
"183","702035-99999","SAVOONGA",63.683,-170.483,"US","AK",19870629,20051201,"UNITED STATES","US","USA"
"184","702040-26703","GAMBELL AIRPORT",63.767,-171.733,"US","AK",19870603,20200108,"UNITED STATES","US","USA"
"185","702040-99999","GAMBELL (AWOS)",63.767,-171.733,"US","AK",20000101,20031231,"UNITED STATES","US","USA"
"186","702060-26632","NORTHEAST CAPE",63.317,-168.967,"US","AK",19520729,19690819,"UNITED STATES","US","USA"
"187","702070-26627","UNALAKLEET AIRPORT",63.883,-160.8,"US","AK",19430601,20200108,"UNITED STATES","US","USA"
"188","702070-99999","UNALAKLEET",63.883,-160.8,"US","AK",20000101,20031231,"UNITED STATES","US","USA"
"189","702075-26644","ANVIK AIRPORT",62.65,-160.183,"US","AK",20060101,20200108,"UNITED STATES","US","USA"
"190","702075-99999","ANVIK",62.65,-160.183,"US","AK",19950210,20051231,"UNITED STATES","US","USA"
"191","702084-26650","EMMONAK",62.785,-164.491,"US","AK",20060101,20191022,"UNITED STATES","US","USA"
"192","702084-99999","EMMONAK",62.783,-164.483,"US","AK",19440412,20051231,"UNITED STATES","US","USA"
"193","702091-99999","MOUNTAIN VILLAGE",62.083,-163.717,"US","AK",19441018,19450927,"UNITED STATES","US","USA"
"194","702120-26633","CAPE ROMANZOFF AFS",61.783,-166.033,"US","AK",19530401,19991231,"UNITED STATES","US","USA"
"195","702120-26646","CAPE ROMANZOF LRRS ARPT",61.783,-166.033,"US","AK",20060101,20200108,"UNITED STATES","US","USA"
"196","702120-99999","CAPE ROMANZOFF AFS",61.783,-166.033,"US","AK",20000101,20051231,"UNITED STATES","US","USA"
"197","702180-99999","NUNIVAK",60,-166,"US","",19440101,19730227,"UNITED STATES","US","USA"
"198","702185-26622","MEKORYUK AIRPORT",60.383,-166.2,"US","AK",20060105,20200108,"UNITED STATES","US","USA"
"199","702185-99999","MEKORYUK",60.367,-166.267,"US","AK",19831104,20051129,"UNITED STATES","US","USA"
"200","702186-26651","HOOPER BAY AIRPORT",61.524,-166.147,"US","AK",20060101,20191119,"UNITED STATES","US","USA"
"201","702186-99999","HOOPER BAY",61.517,-166.133,"US","AK",19841105,20051231,"UNITED STATES","US","USA"
"202","702190-26615","BETHEL AIRPORT",60.785,-161.829,"US","AK",19450101,20200108,"UNITED STATES","US","USA"
"203","702195-99999","NAPAKIAK",60.683,-161.983,"US","AK",19940830,20200107,"UNITED STATES","US","USA"
"204","702220-26501","GALENA AIRPORT",64.737,-156.934,"US","AK",20060101,20200108,"UNITED STATES","US","USA"
"205","702220-99999","GALENA A.",64.733,-156.933,"US","AK",19420917,20051231,"UNITED STATES","US","USA"
"206","702223-26602","KOYUK AIRPORT",64.935,-161.155,"US","AK",20060101,20200108,"UNITED STATES","US","USA"
"207","702223-99999","KOYUK AIRPORT",64.933,-161.167,"US","AK",19760503,20051231,"UNITED STATES","US","USA"
"208","702224-99999","EAGLE AIRPORT",64.783,-141.15,"US","AK",19810619,19950512,"UNITED STATES","US","USA"
"209","702225-99999","HUSLIA",65.7,-156.383,"US","AK",19940103,20050817,"UNITED STATES","US","USA"
"210","702310-26510","MCGRATH AIRPORT",62.957,-155.61,"US","AK",19730101,20200108,"UNITED STATES","US","USA"
"211","702312-26519","FAREWELL LAKE",62.54,-153.617,"US","AK",19970402,19991231,"UNITED STATES","US","USA"
"212","702312-26555","FAREWELL LAKE SEAPLANE BASE",62.543,-153.623,"US","AK",20060101,20140419,"UNITED STATES","US","USA"
"213","702312-99999","FAREWELL LAKE",62.54,-153.617,"US","AK",20000101,20051231,"UNITED STATES","US","USA"
"214","702315-26536","TATALINA LRRS AIRPORT",62.894,-155.976,"US","AK",20060101,20200107,"UNITED STATES","US","USA"
"215","702315-99999","TATALINA LRRS",62.883,-155.967,"US","AK",19520401,20051231,"UNITED STATES","US","USA"
"216","702320-26516","ANIAK AIRPORT",61.582,-159.543,"US","AK",19730101,20200108,"UNITED STATES","US","USA"
"217","702320-99999","ANIAK",61.583,-159.533,"US","AK",20000101,20031231,"UNITED STATES","US","USA"
"218","702325-26443","WASILLA AIRPORT",61.572,-149.541,"US","AK",20040702,20200108,"UNITED STATES","US","USA"
"219","702325-99999","WASILLA",61.572,-149.54,"US","AK",19980226,20041231,"UNITED STATES","US","USA"
"220","702350-26534","SPARREVOHN LRRS AIRPORT",61.1,-155.583,"US","AK",20060101,20200108,"UNITED STATES","US","USA"
"221","702350-99999","SPARREVOHN AFS",61.1,-155.567,"US","AK",19510711,20051231,"UNITED STATES","US","USA"
"222","702460-26512","MINCHUMINA",63.886,-152.302,"US","AK",19730101,20200108,"UNITED STATES","US","USA"
"223","702460-99999","MINCHUMINA",63.9,-152.267,"US","AK",20000101,20041230,"UNITED STATES","US","USA"
"224","702480-99999","FAREWELL/INTERMEDIATE FIELD",62.517,-153.883,"US","",19730101,19840605,"UNITED STATES","US","USA"
"225","702483-99999","FAREWELL LAKE",62.533,-153.617,"US","AK",19850130,19960425,"UNITED STATES","US","USA"
"226","702490-26526","PUNTILLA LAKE",62.091,-152.735,"US","AK",20060101,20200108,"UNITED STATES","US","USA"
"227","702490-99999","PUNTILLA",62.1,-152.75,"US","AK",19730101,20051231,"UNITED STATES","US","USA"
"228","702495-26547","HAYES RIVER AIRPORT",61.983,-152.083,"US","AK",20060101,20110127,"UNITED STATES","US","USA"
"229","702495-99999","HAYES RIVER AIRPORT",61.98,-152.08,"US","AK",19730101,20051231,"UNITED STATES","US","USA"
"230","702510-26528","TALKEETNA AIRPORT",62.32,-150.095,"US","AK",19730101,20200108,"UNITED STATES","US","USA"
"231","702520-99999","TALKEETNA  AK",62.3,-150.417,"US","AK",20050213,20050213,"UNITED STATES","US","USA"
"232","702550-26514","SKWENTNA AIRPORT",61.977,-151.217,"US","AK",19730101,20161001,"UNITED STATES","US","USA"
"233","702550-99999","SKWENTNA",61.967,-151.183,"US","AK",20000101,20041231,"UNITED STATES","US","USA"
"234","702590-26523","KENAI MUNICIPAL AIRPORT",60.58,-151.239,"US","AK",19730101,20200108,"UNITED STATES","US","USA"
"235","702595-26559","SOLDOTNA AIRPORT",60.476,-151.034,"US","AK",20060101,20200108,"UNITED STATES","US","USA"
"236","702595-99999","SOLDOTNA",60.467,-151.033,"US","AK",19830502,20051231,"UNITED STATES","US","USA"
"237","702600-26435","NENANA MUNICIPAL AIRPORT",64.55,-149.072,"US","AK",19430706,20200108,"UNITED STATES","US","USA"
"238","702600-99999","NENANA/MUN.",64.55,-149.083,"US","AK",20000101,20031231,"UNITED STATES","US","USA"
"239","702605-99999","CLEAR",64.301,-149.12,"US","AK",19471010,19471130,"UNITED STATES","US","USA"
"240","702606-96401","CHULITNA",62.826,-149.907,"US","AK",20060101,20200108,"UNITED STATES","US","USA"
"241","702606-99999","CHULITNA AIRPORT",62.883,-149.833,"US","AK",19781130,20051231,"UNITED STATES","US","USA"
"242","702607-25378","HOONAH SEAPLANE BASE",58.096,-135.409,"US","AK",20060101,20200108,"UNITED STATES","US","USA"
"243","702607-99999","HOONAH SEAPLANE BASE",58.12,-135.417,"US","AK",19781124,20051231,"UNITED STATES","US","USA"
"244","702610-26411","FAIRBANKS INTERNATIONAL",64.804,-147.876,"US","AK",19460101,20200108,"UNITED STATES","US","USA"
"245","702615-26498","WAINWRIGHT AAF AIRPORT",64.838,-147.614,"US","AK",20060103,20200108,"UNITED STATES","US","USA"
"246","702615-99999","WAINWRIGHT AAF",64.833,-147.617,"US","AK",19410206,20051230,"UNITED STATES","US","USA"
"247","702616-99999","OLD MAN",66.45,-150.583,"US","AK",19750108,19761123,"UNITED STATES","US","USA"
"248","702625-99999","NIKOLAI",63.02,-154.36,"US","AK",20080101,20081231,"UNITED STATES","US","USA"
"249","702626-99999","PILOT POINT",57.58,-157.58,"US","AK",20061024,20200107,"UNITED STATES","US","USA"
"250","702627-26561","RUBY  AIRPORT",64.727,-155.47,"US","AK",20061001,20200102,"UNITED STATES","US","USA"
"251","702628-99999","MARSHALL DON HUNTER SR",61.864,-162.026,"US","AK",20080101,20180103,"UNITED STATES","US","USA"
"252","702629-99999","CAPE DECISION CG HELIPORT",56,-134.133,"US","AK",20080915,20110608,"UNITED STATES","US","USA"
"253","702640-26414","SUMMIT",63.331,-149.127,"US","AK",19730101,19840107,"UNITED STATES","US","USA"
"254","702645-46403","MCKINLEY NATIONAL PARK AIRPORT",63.733,-148.917,"US","AK",20060101,20200108,"UNITED STATES","US","USA"
"255","702645-99999","MCKINLEY NATIONAL PK",63.733,-148.917,"US","AK",19751202,20051231,"UNITED STATES","US","USA"
"256","702646-99999","MT MCKINLEY NATL PK",63.65,-148.8,"US","AK",19760116,19760427,"UNITED STATES","US","USA"
"257","702647-26499","HEALY RIVER AIRPORT",63.866,-148.969,"US","AK",20060101,20120608,"UNITED STATES","US","USA"
"258","702647-99999","HEALY RIVER AIRPORT",63.87,-148.97,"US","AK",19761221,20051231,"UNITED STATES","US","USA"
"259","702648-46406","CANTWELL AIRPORT",63.391,-148.956,"US","AK",20060102,20110827,"UNITED STATES","US","USA"
"260","702648-99999","CANTWELL CANTWELL",63.4,-148.95,"US","AK",19831103,20051205,"UNITED STATES","US","USA"
"261","702650-26407","EIELSON AFB AIRPORT",64.683,-147.083,"US","AK",20060102,20200108,"UNITED STATES","US","USA"
"262","702650-99999","FAIRBANKS/EIELSON A",64.65,-147.067,"US","AK",19441111,20051231,"UNITED STATES","US","USA"
"263","702653-99999","EIELSON AFB       &",64.65,-147.067,"US","AK",19750814,19750814,"UNITED STATES","US","USA"
"264","702660-99999","FORT GREELY  AK",63.967,-145.7,"US","AK",19440626,19900628,"UNITED STATES","US","USA"
"265","702670-26415","ALLEN ARMY AIRFIELD",63.994,-145.721,"US","AK",19451015,20200108,"UNITED STATES","US","USA"
"266","702673-99999","BIG DELTA ARCTIC WX",64,-145.717,"US","AK",19800303,19841204,"UNITED STATES","US","USA"
"267","702674-99999","CIRCLE CITY AIRPORT",65.833,-144.067,"US","AK",19790507,20091019,"UNITED STATES","US","USA"
"268","702675-26484","PAXSON AIRPORT",63.032,-145.498,"US","AK",20060101,20101003,"UNITED STATES","US","USA"
"269","702675-99999","PAXSON",63.033,-145.5,"US","AK",19740419,20051231,"UNITED STATES","US","USA"
"270","702677-99999","ISABELL PASS CAMP",63.083,-145.5,"US","AK",19750929,19761202,"UNITED STATES","US","USA"
"271","702680-99999","GLENNALLEN  AK",62.1,-145.967,"US","AK",19750401,19900504,"UNITED STATES","US","USA"
"272","702685-27518","ATQASUK EDWARD BURNELL SR. MEMORIAL AIRPORT",70.467,-157.436,"US","AK",20060501,20200108,"UNITED STATES","US","USA"
"273","702686-99999","AKIAK",60.903,-161.231,"US","AK",20080101,20081231,"UNITED STATES","US","USA"
"274","702695-96402","JONESVILLE MINE AIRPORT",61.714,-148.909,"US","AK",20060101,20111102,"UNITED STATES","US","USA"
"275","702695-99999","SUTTON",61.717,-148.883,"US","AK",19920416,20051231,"UNITED STATES","US","USA"
"276","702696-99999","LAZY MTN/WOLVERINE",61.633,-149.033,"US","AK",19780315,20040214,"UNITED STATES","US","USA"
"277","702697-99999","NEW STUYAHOK",59.45,-157.33,"US","AK",20080101,20180322,"UNITED STATES","US","USA"
"278","702700-99999","FT. RICHARDSON/BRYANT AHP  AK",61.267,-149.65,"US","",19731201,20180520,"UNITED STATES","US","USA"
"279","702710-26425","GULKANA AIRPORT",62.159,-145.459,"US","AK",19450101,20200108,"UNITED STATES","US","USA"
"280","702711-26439","SHEEP MOUNTAIN AIRPORT",61.812,-147.507,"US","AK",20050101,20111101,"UNITED STATES","US","USA"
"281","702711-99999","SHEEP MOUNTAIN",61.817,-147.55,"US","AK",19970203,20041231,"UNITED STATES","US","USA"
"282","702715-46407","SKELTON AIRPORT",61.949,-147.169,"US","AK",20060101,20200108,"UNITED STATES","US","USA"
"283","702715-99999","EUREKA SKELTON AIR",61.933,-147.167,"US","AK",19950708,20051231,"UNITED STATES","US","USA"
"284","702716-99999","TAHNETA PASS",61.817,-147.55,"US","AK",19730102,19960104,"UNITED STATES","US","USA"
"285","702717-99999","SELAWIK",66.6,-159.986,"US","AK",19730101,20160930,"UNITED STATES","US","USA"
"286","702719-99999","SNOWSHOE LAKE",62.033,-142.667,"US","AK",19750917,19761207,"UNITED STATES","US","USA"
"287","702720-26401","ELMENDORF AFB AIRPORT",61.253,-149.794,"US","AK",20060101,20200108,"UNITED STATES","US","USA"
"288","702720-99999","ANCHORAGE/ELMENDORF",61.25,-149.8,"US","AK",19410310,20051231,"UNITED STATES","US","USA"
"289","702725-26491","LAKE HOOD SEAPLANE BASE",61.178,-149.966,"US","AK",20020101,20200108,"UNITED STATES","US","USA"
"290","702725-99999","ANCHORAGE LAKE HOOD",61.183,-149.967,"US","AK",19730104,20011231,"UNITED STATES","US","USA"
"291","702730-26451","TED STEVENS ANCHORAGE INTL",61.169,-150.028,"US","AK",19730101,20200108,"UNITED STATES","US","USA"
"292","702735-26409","MERRILL FIELD AIRPORT",61.217,-149.855,"US","AK",19450101,20200108,"UNITED STATES","US","USA"
"293","702735-99999","MERRILL FLD",61.2,-149.833,"US","AK",20000101,20031231,"UNITED STATES","US","USA"
"294","702736-99999","FT RICHARDSON/BRYN&",61.267,-149.65,"US","AK",19760625,19830721,"UNITED STATES","US","USA"
"295","702740-25331","PALMER MUNICIPAL AIRPORT",61.596,-149.092,"US","AK",19990101,20200108,"UNITED STATES","US","USA"
"296","702740-99999","PALMER",61.595,-149.089,"US","AK",19730101,19981231,"UNITED STATES","US","USA"
"297","702745-26560","WILLOW AIRPORT",61.748,-150.054,"US","AK",20060101,20111101,"UNITED STATES","US","USA"
"298","702745-99999","WILLOW AIRPORT",61.754,-150.052,"US","AK",19910207,20051231,"UNITED STATES","US","USA"
"299","702746-26497","BIRCHWOOD AIRPORT",61.416,-149.507,"US","AK",20060101,20200108,"UNITED STATES","US","USA"
"300","702746-99999","BIRCHWOOD",61.417,-149.5,"US","AK",19940103,20051231,"UNITED STATES","US","USA"
"301","702750-26442","NATIONAL WEATHER SERVICE OFFICE",61.13,-146.352,"US","AK",19730101,20140401,"UNITED STATES","US","USA"
"302","702754-99999","VALDEZ",61.133,-146.25,"US","AK",19960815,19961009,"UNITED STATES","US","USA"
"303","702755-46404","MCCARTHY AIRPORT",61.437,-142.904,"US","AK",20060101,20140901,"UNITED STATES","US","USA"
"304","702755-99999","MCCARTHY",61.433,-142.933,"US","AK",19740421,20051231,"UNITED STATES","US","USA"
"305","702756-26479","VALDEZ PIONEER FIELD AIRPORT",61.132,-146.244,"US","AK",20060101,20200108,"UNITED STATES","US","USA"
"306","702756-99999","VALDEZ PIONEER FIEL",61.133,-146.25,"US","AK",19750501,20051231,"UNITED STATES","US","USA"
"307","702757-26444","WHITTIER AIRPORT",60.783,-148.733,"US","AK",20060101,20120520,"UNITED STATES","US","USA"
"308","702757-99999","WHITTIER",60.767,-148.683,"US","AK",19750501,20051231,"UNITED STATES","US","USA"
"309","702758-27517","ALPINE AIRSTRIP",70.344,-150.945,"US","AK",20060101,20200108,"UNITED STATES","US","USA"
"310","702758-99999","DEADHORSE ALPINE AIR",70.333,-150.933,"US","AK",20040608,20051231,"UNITED STATES","US","USA"
"311","702770-26438","SEWARD AIRPORT",60.128,-149.417,"US","AK",20060101,20200108,"UNITED STATES","US","USA"
"312","702770-99999","SEWARD",60.117,-149.45,"US","AK",19450101,20051231,"UNITED STATES","US","USA"
"313","702790-26417","CAPE HINCHINBROOK",60.233,-146.65,"US","AK",19740101,19800622,"UNITED STATES","US","USA"
"314","702795-99999","HINCHINBROOK",60.4,-146.083,"US","AK",19730101,19740529,"UNITED STATES","US","USA"
"315","702910-26412","NORTHWAY AIRPORT",62.962,-141.988,"US","AK",19450101,20200108,"UNITED STATES","US","USA"
"316","702913-46402","DEVILS MOUNTAIN LODGE AIRPORT",62.402,-142.995,"US","AK",20060101,20141001,"UNITED STATES","US","USA"
"317","702913-99999","NABESNA/DEVIL MTN",62.4,-143,"US","AK",19920416,20051231,"UNITED STATES","US","USA"
"318","702915-26486","DUFFY'S TAVERN AIRPORT",62.709,-143.981,"US","AK",20060101,20110701,"UNITED STATES","US","USA"
"319","702915-99999","SLANA AIRPORT",62.7,-143.983,"US","AK",19740904,20051231,"UNITED STATES","US","USA"
"320","702923-26440","TANACROSS",63.383,-143.333,"US","AK",19440522,19500901,"UNITED STATES","US","USA"
"321","702924-99999","TOK",63.317,-142.717,"US","AK",19771006,19850729,"UNITED STATES","US","USA"
"322","702960-26410","M.K.(MUDHOLE) SMITH ARPT",60.489,-145.451,"US","AK",19420611,20200108,"UNITED STATES","US","USA"
"323","702965-99999","JOHNSTONE POINT",60.483,-146.6,"US","AK",19750401,19820729,"UNITED STATES","US","USA"
"324","702980-26445","YAKATAGA",60.083,-142.5,"US","AK",19730315,19990706,"UNITED STATES","US","USA"
"325","702980-99999","YAKATAGA",60.083,-142.5,"US","",20010706,20020605,"UNITED STATES","US","USA"
"326","702986-26557","BIG RIVER LAKE",60.814,-152.297,"US","AK",20060101,20190808,"UNITED STATES","US","USA"
"327","702986-99999","BIG RIVER LAKE",60.817,-152.3,"US","AK",19780823,20051231,"UNITED STATES","US","USA"
"328","702987-99999","NIGHTMUTE",60.467,-164.7,"US","AK",19840911,19850509,"UNITED STATES","US","USA"
"329","703050-25623","CAPE HEWENHAM LRRS AIRPORT",58.65,-162.067,"US","AK",20060101,20200107,"UNITED STATES","US","USA"
"330","703050-99999","CAPE NEWENHAM AFS",58.65,-162.067,"US","AK",19530726,20051231,"UNITED STATES","US","USA"
"331","703051-26521","HOLY CROSS AIRPORT",62.183,-159.767,"US","AK",20060101,20200108,"UNITED STATES","US","USA"
"332","703051-99999","HOLY CROSS",62.183,-159.783,"US","AK",20050929,20051231,"UNITED STATES","US","USA"
"333","703052-26652","KALSKAG AIRPORT",61.536,-160.341,"US","AK",20060117,20191204,"UNITED STATES","US","USA"
"334","703052-99999","KALSKAG",61.533,-160.333,"US","AK",20050929,20051130,"UNITED STATES","US","USA"
"335","703053-26654","RUSSIAN MISSION AIRPORT",61.775,-161.319,"US","AK",20060101,20200108,"UNITED STATES","US","USA"
"336","703053-99999","RUSSIAN MISSION",61.767,-161.317,"US","AK",19760512,20051231,"UNITED STATES","US","USA"
"337","703054-99999","SCAMMON BAY",61.845,-165.571,"US","AK",20080101,20081231,"UNITED STATES","US","USA"
"338","703055-99999","MANOKOTAK",58.99,-159.05,"US","AK",20080101,20180322,"UNITED STATES","US","USA"
"339","703056-26635","MOUNTAIN VILLAGE AIRPORT",62.095,-163.682,"US","AK",20060101,20200108,"UNITED STATES","US","USA"
"340","703056-99999","MOUNTAIN VILLAGE",62.1,-163.683,"US","AK",20050929,20051231,"UNITED STATES","US","USA"
"341","703057-26653","TOKSOOK BAY AIRPORT",60.541,-165.087,"US","AK",20060101,20200108,"UNITED STATES","US","USA"
"342","703057-99999","TOOKSOK BAY",60.533,-165.083,"US","AK",20050929,20051231,"UNITED STATES","US","USA"
"343","703058-99999","NELSON LAGOON",56.01,-161.16,"US","AK",20080101,20180514,"UNITED STATES","US","USA"
"344","703059-99999","KING COVE",55.17,-162.27,"US","AK",20050930,20200107,"UNITED STATES","US","USA"
"345","703061-25521","IGIUGIG AIRPORT",59.324,-155.902,"US","AK",20060101,20200108,"UNITED STATES","US","USA"
"346","703061-99999","IGIUGIG",59.3,-155.9,"US","AK",20050929,20051231,"UNITED STATES","US","USA"
"347","703080-25713","ST PAUL ISLAND AIRPORT",57.155,-170.222,"US","AK",19431105,20200108,"UNITED STATES","US","USA"
"348","703160-25624","COLD BAY AIRPORT",55.221,-162.732,"US","AK",19420304,20200108,"UNITED STATES","US","USA"
"349","703165-25617","SAND POINT AIRPORT",55.319,-160.521,"US","AK",20050101,20200108,"UNITED STATES","US","USA"
"350","703165-99999","SAND POINT",55.333,-160.5,"US","AK",19730107,20041231,"UNITED STATES","US","USA"
"351","703210-25513","DILLINGHAM AIRPORT",59.05,-158.517,"US","AK",20060101,20200108,"UNITED STATES","US","USA"
"352","703210-99999","DILLINGHAM MUNI",59.05,-158.517,"US","AK",19730101,20051231,"UNITED STATES","US","USA"
"353","703260-25503","KING SALMON AIRPORT",58.683,-156.656,"US","AK",19420110,20200108,"UNITED STATES","US","USA"
"354","703263-99999","KING SALMON",58.683,-156.683,"US","AK",19801002,19960630,"UNITED STATES","US","USA"
"355","703330-25508","PORT HEIDEN AIRPORT",56.959,-158.632,"US","AK",20060101,20200108,"UNITED STATES","US","USA"
"356","703330-99999","PORT HEIDEN",56.95,-158.617,"US","AK",19420803,20051231,"UNITED STATES","US","USA"
"357","703333-25518","CHIGNIK AIRPORT",56.311,-158.373,"US","AK",20060101,20191231,"UNITED STATES","US","USA"
"358","703333-99999","CHIGNIK AIRPORT",56.31,-158.367,"US","AK",19980226,20051231,"UNITED STATES","US","USA"
"359","703334-25519","EGEGIK AIRPORT",58.185,-157.386,"US","AK",20060101,20200108,"UNITED STATES","US","USA"
"360","703334-99999","EGEGIK(AWOS)",58.417,-157.367,"US","AK",19930520,20051231,"UNITED STATES","US","USA"
"361","703335-99999","SOUTH NAKNEK ARPT",58.7,-157,"US","AK",19940818,20200107,"UNITED STATES","US","USA"
"362","703400-25506","ILIAMNA AIRPORT",59.749,-154.909,"US","AK",19730101,20200108,"UNITED STATES","US","USA"
"363","703406-26546","PORT ALSWORTH AIRPORT",60.204,-154.316,"US","AK",20050101,20200105,"UNITED STATES","US","USA"
"364","703406-99999","PORT ALSWORTH AIR",60.2,-154.317,"US","AK",19730101,20041231,"UNITED STATES","US","USA"
"365","703407-26553","SLEETMUTE AIRPORT",61.717,-157.15,"US","AK",20060101,20200108,"UNITED STATES","US","USA"
"366","703407-99999","SLEETMUTE",61.717,-157.15,"US","AK",19940314,20051231,"UNITED STATES","US","USA"
"367","703410-25507","HOMER AIRPORT",59.642,-151.491,"US","AK",19730101,20200108,"UNITED STATES","US","USA"
"368","703430-25402","MIDDLETON ISLAND METEOROLOGY RADAR SITE",59.433,-146.333,"US","AK",19450101,20200108,"UNITED STATES","US","USA"
"369","703430-25403","MIDDLETON ISLAND",59.433,-146.333,"US","AK",19771101,19991231,"UNITED STATES","US","USA"
"370","703430-99999","MIDDLETON ISLAND",59.433,-146.333,"US","AK",20000101,20041231,"UNITED STATES","US","USA"
"371","703431-25402","MIDDLETON ISLAND AUT",59.433,-146.333,"US","AK",19730105,19771121,"UNITED STATES","US","USA"
"372","703500-25501","KODIAK AIRPORT",57.751,-152.486,"US","AK",19450101,20200108,"UNITED STATES","US","USA"
"373","703570-99999","SITKINAK(USCG)",56.55,-154.133,"US","AK",19730104,19790105,"UNITED STATES","US","USA"
"374","703600-99999","CAPE SAINT ELIAS",59.8,-144.6,"US","AK",19730101,19810424,"UNITED STATES","US","USA"
"375","703604-99999","HOMER",59.633,-151.467,"US","AK",19790316,20081231,"UNITED STATES","US","USA"
"376","703605-25604","PLATINUM AIRPORT",59.011,-161.82,"US","AK",20060323,20200108,"UNITED STATES","US","USA"
"377","703605-99999","PLATINUM",59,-161.817,"US","AK",19421001,20050927,"UNITED STATES","US","USA"
"378","703606-25629","TOGIAK AIRPORT",59.067,-160.367,"US","AK",20060101,20200108,"UNITED STATES","US","USA"
"379","703606-99999","TOGIAK",59.05,-160.383,"US","AK",19891201,20051231,"UNITED STATES","US","USA"
"380","703610-25339","YAKUTAT AIRPORT",59.512,-139.671,"US","AK",19410501,20200108,"UNITED STATES","US","USA"
"381","703615-99999","OCEAN CAPE (CGS)",59.517,-139.767,"US","AK",19770610,19770610,"UNITED STATES","US","USA"
"382","703620-25335","SKAGWAY AIRPORT",59.456,-135.324,"US","AK",19431001,20200108,"UNITED STATES","US","USA"
"383","703621-25516","SELDOVIA AIRPORT",59.443,-151.702,"US","AK",20060101,20200108,"UNITED STATES","US","USA"
"384","703621-99999","SELDOVIA ARPT",59.45,-151.7,"US","AK",19980316,20051231,"UNITED STATES","US","USA"
"385","703625-99999","HAINES BOAT HARBOR",59.233,-135.433,"US","AK",19730719,19960429,"UNITED STATES","US","USA"
"386","703626-25323","HAINES",59.243,-135.509,"US","AK",19960613,20200108,"UNITED STATES","US","USA"
"387","703627-99999","PEDRO BAY",59.783,-154.133,"US","AK",20040702,20040928,"UNITED STATES","US","USA"
"388","703640-99999","ELDRED ROCK",58.967,-135.217,"US","AK",19730101,20010718,"UNITED STATES","US","USA"
"389","703644-27515","NUIQSUT AIRPORT",70.212,-151.002,"US","AK",20060101,20200108,"UNITED STATES","US","USA"
"390","703644-99999","NUIQSUT",70.2,-151,"US","AK",19990114,20051231,"UNITED STATES","US","USA"
"391","703650-25316","CAPE SPENCER",58.2,-136.633,"US","AK",19730101,19891011,"UNITED STATES","US","USA"
"392","703655-26552","HUSLIA AIRPORT",65.698,-156.351,"US","AK",20060101,20200108,"UNITED STATES","US","USA"
"393","703655-99999","HUSLIA",65.7,-156.633,"US","AK",20041228,20051231,"UNITED STATES","US","USA"
"394","703656-99999","QUINHAGAK AIRPORT",59.75,-161.833,"US","AK",20140211,20200107,"UNITED STATES","US","USA"
"395","703670-25322","GUSTAVUS",58.411,-135.709,"US","AK",19760801,20200108,"UNITED STATES","US","USA"
"396","703670-99999","GUSTAVUS",58.425,-135.707,"US","AK",20000101,20041231,"UNITED STATES","US","USA"
"397","703675-99999","SISTERS ISLAND",58.167,-135.25,"US","AK",19730101,19840701,"UNITED STATES","US","USA"
"398","703710-25333","SITKA ROCKY GUTIERREZ ARPT",57.048,-135.365,"US","AK",19730101,20200108,"UNITED STATES","US","USA"
"399","703715-99999","BIORKA ISLAND SAWRS",56.85,-135.533,"US","AK",19730101,19780829,"UNITED STATES","US","USA"
"400","703724-99999","WILLOW WEST",61.75,-150.05,"US","AK",19771203,19910124,"UNITED STATES","US","USA"
"401","703810-25309","JUNEAU INTERNATIONAL",58.357,-134.564,"US","AK",19730101,20200108,"UNITED STATES","US","USA"
"402","703815-99999","PT. RETREAT (AMOS)",58.4,-134.95,"US","AK",19730101,19891011,"UNITED STATES","US","USA"
"403","703816-99999","FUNTER BAY SEAPLANE",58.25,-134.9,"US","AK",19740428,19960630,"UNITED STATES","US","USA"
"404","703817-25357","ELFIN COVE SEAPLANE BASE",58.192,-136.344,"US","AK",20060101,20191127,"UNITED STATES","US","USA"
"405","703817-99999","ELFIN COVE SEAPLANE",58.2,-136.35,"US","AK",19741219,20051231,"UNITED STATES","US","USA"
"406","703830-25310","ANGOON SEAPLANE BASE",57.499,-134.586,"US","AK",19730101,20200108,"UNITED STATES","US","USA"
"407","703835-25628","ST. GEORGE AIRPORT",56.6,-169.565,"US","AK",20060101,20200108,"UNITED STATES","US","USA"
"408","703835-99999","ST GEORGE",56.567,-169.65,"US","AK",19980226,20051231,"UNITED STATES","US","USA"
"409","703850-99999","FIVE FINGER LIGHT",57.267,-133.617,"US","",19730101,20020524,"UNITED STATES","US","USA"
"410","703855-25369","KAKE AIRPORT",56.967,-133.9,"US","AK",20060101,20191220,"UNITED STATES","US","USA"
"411","703855-99999","KAKE",56.95,-133.9,"US","AK",19730101,20051231,"UNITED STATES","US","USA"
"412","703860-25329","JAMES A JOHNSON AIRPORT",56.806,-132.937,"US","AK",19730101,20200108,"UNITED STATES","US","USA"
"413","703860-99999","PETERSBURG",56.817,-132.967,"US","AK",20000101,20041231,"UNITED STATES","US","USA"
"414","703863-99999","FREDERICKS POINT",56.8,-132.817,"US","AK",19850618,19850618,"UNITED STATES","US","USA"
"415","703865-99999","LEVEL ISLAND",56.467,-133.1,"US","AK",19730901,19780329,"UNITED STATES","US","USA"
"416","703870-25338","WRANGELL AIRPORT",56.473,-132.387,"US","AK",20060101,20200108,"UNITED STATES","US","USA"
"417","703870-99999","WRANGELL",56.484,-132.37,"US","AK",19730101,20051231,"UNITED STATES","US","USA"
"418","703880-25315","CAPE DECISION",56,-134.133,"US","AK",19730101,19891011,"UNITED STATES","US","USA"
"419","703880-99999","CAPE DECISION(AMOS)",56,-134.133,"US","AK",20001201,20041123,"UNITED STATES","US","USA"
"420","703884-25376","HYDABURG SEAPLANE BASE",55.206,-132.828,"US","AK",20060101,20191031,"UNITED STATES","US","USA"
"421","703884-99999","HYDABURG SEAPLANE BA",55.2,-132.833,"US","AK",19781205,20051231,"UNITED STATES","US","USA"
"422","703885-99999","CAPE POLE SEAPLANE",55.967,-133.8,"US","AK",19740318,19780801,"UNITED STATES","US","USA"
"423","703886-25348","PORT ALEXANDER SPB",56.247,-134.645,"US","AK",20060101,20151117,"UNITED STATES","US","USA"
"424","703886-99999","PORT ALEXANDER",56.247,-134.65,"US","AK",19790507,20051231,"UNITED STATES","US","USA"
"425","703888-99999","SHAKTOOLIK AIRPORT",64.371,-161.224,"US","AK",20180107,20180322,"UNITED STATES","US","USA"
"426","703891-99999","ELIM AIRPORT",64.617,-162.267,"US","AK",20130731,20200107,"UNITED STATES","US","USA"
"427","703894-25367","KLAWOCK AIRPORT",55.58,-133.075,"US","AK",20000101,20200108,"UNITED STATES","US","USA"
"428","703894-99999","KLAWOCK",55.567,-133.067,"US","AK",19801015,19991231,"UNITED STATES","US","USA"
"429","703920-25317","CRAIG SEAPLANE",55.483,-133.15,"US","AK",19730102,19740129,"UNITED STATES","US","USA"
"430","703920-99999","CRAIG SEAPLANE",55.483,-133.15,"US","AK",20020425,20020425,"UNITED STATES","US","USA"
"431","703925-99999","KOLIGANEK",59.73,-157.26,"US","AK",20080101,20180322,"UNITED STATES","US","USA"
"432","703926-99999","AKHIOK",56.933,-154.183,"US","AK",20070521,20200107,"UNITED STATES","US","USA"
"433","703950-25325","KETCHIKAN INTL AIRPORT",55.35,-131.65,"US","AK",19730101,20200108,"UNITED STATES","US","USA"
"434","703980-25308","ANNETTE ISLAND AIRPORT",55.039,-131.579,"US","AK",19410714,20191001,"UNITED STATES","US","USA"
"435","703985-25377","METLAKATLA SEAPLANE BASE",55.131,-131.578,"US","AK",20060101,20200108,"UNITED STATES","US","USA"
"436","703985-99999","METLAKATLA SEAPLANE",55.133,-131.583,"US","AK",19980226,20051231,"UNITED STATES","US","USA"
"437","704090-45709","ATTU",52.833,173.183,"US","AK",19430607,19871020,"UNITED STATES","US","USA"
"438","704140-45715","EARECKSON AIR STATION AIRPORT",52.717,174.1,"US","AK",20050101,20200108,"UNITED STATES","US","USA"
"439","704140-99999","EARECKSON AS",52.717,174.1,"US","AK",19430621,20041231,"UNITED STATES","US","USA"
"440","704540-25704","ADAK NAS",51.883,-176.65,"US","AK",19421030,20200108,"UNITED STATES","US","USA"
"441","704540-99999","ADAK (NAS)",51.883,-176.65,"US","AK",20000101,20031231,"UNITED STATES","US","USA"
"442","704545-99999","AMCHITKA ISLAND",51.383,179.267,"US","AK",19430131,19931001,"UNITED STATES","US","USA"
"443","704820-25626","NIKOLSKI",52.95,-168.85,"US","AK",19420910,19940514,"UNITED STATES","US","USA"
"444","704851-99999","UMNAK (FORT GLEN)",53.367,-167.9,"US","AK",19420226,19501123,"UNITED STATES","US","USA"
"445","704890-25616","DUTCH HARBOR AIRPORT",53.895,-166.543,"US","AK",20081124,20200108,"UNITED STATES","US","USA"
"446","704890-99999","DUTCH HARBOR",53.9,-166.55,"US","AK",19460101,20081123,"UNITED STATES","US","USA"
"447","704891-99999","NORTH ROCK HARBOR",53.883,-166.533,"US","AK",19760801,19761018,"UNITED STATES","US","USA"
"448","704895-99999","CAPE SARICHEF ARPT",54.6,-164.933,"US","AK",19730104,19800802,"UNITED STATES","US","USA"
"449","704896-25625","PORT MOLLER",56,-160.517,"US","AK",19590626,19740306,"UNITED STATES","US","USA"
"450","704897-25515","DRIFTWOOD BAY",53.967,-166.85,"US","AK",19730207,19731224,"UNITED STATES","US","USA"
"451","704898-99999","REBERT (BOB) CURTIS MEMORIAL ARPT",66.818,-161.022,"US","AK",19730103,19910124,"UNITED STATES","US","USA"
"452","711680-99999","SIOUX FALLS CLIMATE",43.733,-96.633,"US","SD",19941001,20200107,"UNITED STATES","US","USA"
"453","713407-99999","SLEETMUTE",61.717,-157.15,"US","AK",19940103,19940404,"UNITED STATES","US","USA"
"454","720021-99999","BOOTHVILLE HELIPORT",29.35,-89.43,"US","LA",20040224,20130430,"UNITED STATES","US","USA"
"455","720046-99999","NEWHALL",34.37,-118.57,"US","CA",20040224,20110905,"UNITED STATES","US","USA"
"456","720048-99999","EUGENE ISLAND 330",28.08,-92.7,"US","LA",20040316,20090801,"UNITED STATES","US","USA"
"457","720059-99999","VALLE",35.651,-112.148,"US","AZ",20040408,20040614,"UNITED STATES","US","USA"
"458","720110-53983","LLANO MUNICIPAL AIRPORT",30.784,-98.662,"US","TX",20050101,20200108,"UNITED STATES","US","USA"
"459","720110-99999","LLANO MUNI",30.784,-98.662,"US","TX",20040806,20041231,"UNITED STATES","US","USA"
"460","720113-54829","OAKLAND/TROY AIRPORT",42.543,-83.178,"US","MI",20050101,20200108,"UNITED STATES","US","USA"
"461","720113-99999","OAKLAND TROY",42.543,-83.178,"US","MI",20041230,20041231,"UNITED STATES","US","USA"
"462","720120-63837","HILTON HEAD AIRPORT",32.217,-80.7,"US","SC",20060101,20200108,"UNITED STATES","US","USA"
"463","720120-99999","HILTON HEAD",32.217,-80.7,"US","SC",20040904,20051231,"UNITED STATES","US","USA"
"464","720122-99999","BROWNING  STARR-BROWNING AIRSTRI",48.6,-113.11,"US","",20041030,20041030,"UNITED STATES","US","USA"
"465","720129-99999","AUSTIN ARPT",39.468,-117.197,"US","NV",20170510,20200107,"UNITED STATES","US","USA"
"466","720137-99999","MORRIS MUNI J R WAS",41.433,-88.417,"US","IL",20040224,20051231,"UNITED STATES","US","USA"
"467","720141-99999","MARSHALL CO",41.019,-89.386,"US","IL",20040224,20051231,"UNITED STATES","US","USA"
"468","720150-99999","COMANCHE  COMANCHE COUNTY-CITY A",31.92,-98.6,"US","",20040803,20040930,"UNITED STATES","US","USA"
"469","720151-99999","ALPINE CASPARIS MUNI",30.384,-103.684,"US","TX",20040426,20051231,"UNITED STATES","US","USA"
"470","720159-99999","HIGH ISLAND 264C",28.467,-93.733,"US","LA",20040414,20130510,"UNITED STATES","US","USA"
"471","720160-63884","KEE FLD",37.601,-81.559,"US","WV",20060101,20130501,"UNITED STATES","US","USA"
"472","720160-99999","KEE FLD",37.6,-81.559,"US","WV",20040803,20051231,"UNITED STATES","US","USA"
"473","720165-99999","WARNER SPRINGS GLIDERPORT",34.264,-116.854,"US","CA",20070307,20130430,"UNITED STATES","US","USA"
"474","720168-99999","COVINGTON MUNI",35.583,-89.587,"US","TN",20170427,20200107,"UNITED STATES","US","USA"
"475","720169-99999","WASHINGTON REGIONAL AIRPORT",38.583,-91,"US","MO",20180104,20180520,"UNITED STATES","US","USA"
"476","720170-63851","METROPOLIS MUNICIPAL AIRPORT",37.186,-88.751,"US","IL",20060101,20200108,"UNITED STATES","US","USA"
"477","720170-99999","METROPOLIS MUNICIPAL",37.186,-88.751,"US","IL",20040803,20051231,"UNITED STATES","US","USA"
"478","720171-99999","WILLIAM L WHITEHURST FLD",35.214,-89.043,"US","TN",20160804,20200107,"UNITED STATES","US","USA"
"479","720172-53996","MENA INTERMOUNTAIN MUNICIPAL AIRPORT",34.545,-94.203,"US","AR",20060101,20200107,"UNITED STATES","US","USA"
"480","720172-99999","MENA INTERMOUNTAIN",34.545,-94.203,"US","AR",20041103,20051231,"UNITED STATES","US","USA"
"481","720175-53919","MONTCELO MUNI/ELLIS FLD AP",33.636,-91.756,"US","AR",20050101,20200108,"UNITED STATES","US","USA"
"482","720175-99999","MONTICELLO",33.633,-91.75,"US","AR",20180101,20180514,"UNITED STATES","US","USA"
"483","720193-99999","LONNIE POOL FLD / WEAVERVILLE AIRPORT",40.747,-122.922,"US","CA",20180225,20180410,"UNITED STATES","US","USA"
"484","720198-54813","MUNISING LAKESHORE",46.417,-86.65,"US","MI",20060101,20200108,"UNITED STATES","US","USA"
"485","720198-99999","MUNISING LAKESHORE O",46.417,-86.65,"US","MI",20041028,20051231,"UNITED STATES","US","USA"
"486","720202-99999","TILLAMOOK AWS",45.417,-123.817,"US","OR",20040429,20180514,"UNITED STATES","US","USA"
"487","720254-99999","CHEHALIS CENTRALIA",46.677,-122.983,"US","WA",20080101,20180514,"UNITED STATES","US","USA"
"488","720255-99999","MIAMI MUNI",36.909,-94.888,"US","OK",20190828,20200107,"UNITED STATES","US","USA"
"489","720257-63835","EARLY COUNTY AIRPORT",31.397,-84.895,"US","GA",20060101,20200109,"UNITED STATES","US","USA"
"490","720257-99999","EARLY CO",31.4,-84.9,"US","GA",20040525,20051231,"UNITED STATES","US","USA"
"491","720258-99999","ISEDOR IVERSON",46.617,-93.317,"US","MN",20040525,20051231,"UNITED STATES","US","USA"
"492","720259-63844","MACON CO",35.223,-83.419,"US","NC",20060101,20130501,"UNITED STATES","US","USA"
"493","720259-99999","MACON CO",35.223,-83.419,"US","NC",20040525,20051231,"UNITED STATES","US","USA"
"494","720261-53976","BRIDGEPORT MUNICIPAL ARPT",33.175,-97.828,"US","TX",20060101,20200108,"UNITED STATES","US","USA"
"495","720261-99999","BRIDGEPORT MUNI",33.183,-97.833,"US","TX",20040525,20051231,"UNITED STATES","US","USA"
"496","720262-94076","MC ELROY AFLD",40.054,-106.369,"US","CO",20060101,20130430,"UNITED STATES","US","USA"
"497","720262-99999","MC ELROY AFLD",40.054,-106.369,"US","CO",20040525,20051231,"UNITED STATES","US","USA"
"498","720263-63834","ELBERT CO-PATZ FLD AIRPORT",34.095,-82.816,"US","GA",20050101,20190913,"UNITED STATES","US","USA"
"499","720263-99999","ELBERT CO PATZ FLD",34.095,-82.816,"US","GA",20040525,20180322,"UNITED STATES","US","USA"
"500","720264-63827","TAZEWELL COUNTY AIRPORT",37.064,-81.798,"US","VA",20060101,20130430,"UNITED STATES","US","USA"
"501","720264-99999","TAZEWELL COUNTY ARPT",37.067,-81.8,"US","VA",20040525,20051231,"UNITED STATES","US","USA"
"502","720265-63833","THOMAS C RUSSELL FLD ARPT",32.915,-85.963,"US","AL",20060101,20200108,"UNITED STATES","US","USA"
"503","720265-99999","THOMAS C RUSSELL FLD",32.917,-85.967,"US","AL",20040525,20051231,"UNITED STATES","US","USA"
"504","720266-54809","WARSAW MUNICIPAL AIRPORT",41.275,-85.84,"US","IN",20060101,20200108,"UNITED STATES","US","USA"
"505","720266-99999","WARSAW MUNICIPAL",41.267,-85.833,"US","IN",20040525,20051231,"UNITED STATES","US","USA"
"506","720267-23224","AUBURN MUNICIPAL AIRPORT",38.955,-121.082,"US","CA",20060101,20200108,"UNITED STATES","US","USA"
"507","720267-99999","AUBURN MUNICIPAL",38.955,-121.082,"US","CA",20040525,20051231,"UNITED STATES","US","USA"
"508","720268-53882","DCATR CO INDUS AIRPK ARPT",30.983,-84.633,"US","GA",20060101,20200108,"UNITED STATES","US","USA"
"509","720268-99999","DECATUR CO INDUSTRI",30.967,-84.633,"US","GA",20040525,20051231,"UNITED STATES","US","USA"
"510","720269-12982","BROOKS COUNTY AIRPORT",27.207,-98.121,"US","TX",20060101,20200108,"UNITED STATES","US","USA"
"511","720269-99999","BROOKS CO",27.2,-98.117,"US","TX",20040525,20051231,"UNITED STATES","US","USA"
"512","720271-99999","BIG SPRING MCMAHON",32.217,-101.517,"US","TX",20040525,20051231,"UNITED STATES","US","USA"
"513","720272-94282","SKAGIT REGIONAL AIRPORT",48.467,-122.417,"US","WA",20060101,20200108,"UNITED STATES","US","USA"
"514","720272-99999","SKAGIT RGNL",48.467,-122.417,"US","WA",20040525,20051231,"UNITED STATES","US","USA"
"515","720273-12981","BAY CITY MUNICIPAL AIRPORT",28.973,-95.863,"US","TX",20060101,20200108,"UNITED STATES","US","USA"
"516","720273-99999","BAY CITY MUNI",28.967,-95.867,"US","TX",20040525,20051231,"UNITED STATES","US","USA"
"517","720274-93799","COLUMBUS CO MUNICIPAL ARPT",34.273,-78.715,"US","NC",20060101,20200108,"UNITED STATES","US","USA"
"518","720274-99999","COLUMBUS CO MUNI",34.267,-78.717,"US","NC",20040525,20051231,"UNITED STATES","US","USA"
"519","720275-99999","LAMBERTVILLE",41.733,-83.65,"US","MI",20040525,20051231,"UNITED STATES","US","USA"
"520","720276-12983","EDINBURG INTL AIRPORT",26.442,-98.129,"US","TX",20060101,20200108,"UNITED STATES","US","USA"
"521","720276-99999","EDINBURG INTL",26.442,-98.122,"US","TX",20040525,20051231,"UNITED STATES","US","USA"
"522","720277-63843","SHELBY MUNICIPAL AIRPORT",35.256,-81.601,"US","NC",20060101,20200108,"UNITED STATES","US","USA"
"523","720277-99999","SHELBY MUNI",35.256,-81.601,"US","NC",20040525,20051231,"UNITED STATES","US","USA"
"524","720278-99999","EMPORIA GREENSVILLE",36.687,-77.483,"US","VA",20040525,20051231,"UNITED STATES","US","USA"
"525","720279-99999","C L BROWN JR FLD",34.6,-78.583,"US","NC",20040525,20051231,"UNITED STATES","US","USA"
"526","720281-53969","WILBARGER CO",34.226,-99.284,"US","TX",20060101,20130430,"UNITED STATES","US","USA"
"527","720281-99999","WILBARGER CO",34.226,-99.284,"US","TX",20040525,20051231,"UNITED STATES","US","USA"
"528","720282-99999","FIRST FLIGHT",36.018,-75.671,"US","NC",20040525,20051231,"UNITED STATES","US","USA"
"529","720283-99999","FILLMORE CO",43.677,-92.18,"US","MN",20040525,20051231,"UNITED STATES","US","USA"
"530","720284-99999","CHARLOTTE",42.567,-84.817,"US","MI",20040525,20051231,"UNITED STATES","US","USA"
"531","720285-99999","MIDDLE PENINSULA RGN",37.517,-76.767,"US","VA",20040525,20051231,"UNITED STATES","US","USA"
"532","720286-53977","GRANBURY MUNICIPAL ARPT",32.444,-97.817,"US","TX",20060101,20200108,"UNITED STATES","US","USA"
"533","720286-99999","GRANBURY MUNI",32.45,-97.817,"US","TX",20040525,20051231,"UNITED STATES","US","USA"
"534","720287-53967","GRAYSON COUNTY AIRPORT",33.714,-96.674,"US","TX",20060101,20200108,"UNITED STATES","US","USA"
"535","720287-99999","GRAYSON CO",33.714,-96.674,"US","TX",20040525,20051231,"UNITED STATES","US","USA"
"536","720288-99999","HENDERSON OXFORD",36.367,-78.533,"US","NC",20040525,20051231,"UNITED STATES","US","USA"
"537","720289-63836","THOMSON-MCDUFFIE CO ARPT",33.53,-82.516,"US","GA",20050101,20200108,"UNITED STATES","US","USA"
"538","720289-99999","THOMSON MCDUFFIE CO",33.533,-82.517,"US","GA",20040525,20041231,"UNITED STATES","US","USA"
"539","720291-53970","MESQUITE METROPOLITAN ARPT",32.747,-96.531,"US","TX",20060101,20200108,"UNITED STATES","US","USA"
"540","720291-99999","MESQUITE METRO",32.75,-96.533,"US","TX",20040525,20051231,"UNITED STATES","US","USA"
"541","720293-99999","INDEPENDENCE MUNI",42.45,-91.95,"US","IA",20040525,20051231,"UNITED STATES","US","USA"
"542","720294-53898","WASHINGTON-WILKES CO ARPT",33.78,-82.816,"US","GA",20061028,20200108,"UNITED STATES","US","USA"
"543","720294-99999","WASHINGTON WILKES CO",33.783,-82.817,"US","GA",20040525,20040831,"UNITED STATES","US","USA"
"544","720295-53972","HILLSBORO MUNICIPAL ARPT",32.084,-97.097,"US","TX",20060101,20200108,"UNITED STATES","US","USA"
"545","720295-99999","HILLSBORO MUNI",32.083,-97.1,"US","TX",20040525,20051231,"UNITED STATES","US","USA"
"546","720296-53945","JASPER COUNTY-BELL FLD APT",30.886,-94.035,"US","TX",20060101,20200108,"UNITED STATES","US","USA"
"547","720296-99999","JASPER CO BELL FLD",30.886,-94.035,"US","TX",20040525,20051231,"UNITED STATES","US","USA"
"548","720297-99999","WILLIAMSBURG",37.233,-76.717,"US","VA",20040525,20051231,"UNITED STATES","US","USA"
"549","720298-53971","CHEROKEE COUNTY AIRPORT",31.869,-95.218,"US","TX",20060101,20200108,"UNITED STATES","US","USA"
"550","720298-99999","JACKSONVILLE",31.867,-95.217,"US","TX",20040525,20051231,"UNITED STATES","US","USA"
"551","720299-53966","MID-WAY REGIONAL AIRPORT",32.456,-96.913,"US","TX",20060101,20200108,"UNITED STATES","US","USA"
"552","720299-99999","MIDLOTHIAN/WAXAHATC",32.45,-96.917,"US","TX",20040525,20051231,"UNITED STATES","US","USA"
"553","720300-99999","WARNER-ROBINS(NEXRAD)",32.683,-83.35,"US","GA",20051224,20051224,"UNITED STATES","US","USA"
"554","720301-63846","PLANTATION AIRPARK",32.646,-81.596,"US","GA",20060101,20200108,"UNITED STATES","US","USA"
"555","720301-99999","PLANTATION AIRPARK",32.645,-81.596,"US","GA",20040525,20051231,"UNITED STATES","US","USA"
"556","720302-53963","CRKVIL-RED RIVER CO ARPT",33.593,-95.064,"US","TX",20060101,20170326,"UNITED STATES","US","USA"
"557","720302-99999","CLARKSVILLE RED RIVE",33.593,-96.064,"US","TX",20040525,20051231,"UNITED STATES","US","USA"
"558","720303-53973","HEARNE MUNICIPAL AIRPORT",30.872,-96.622,"US","TX",20060101,20200108,"UNITED STATES","US","USA"
"559","720303-99999","HEARNE MUNI",30.867,-96.617,"US","TX",20040525,20051231,"UNITED STATES","US","USA"
"560","720304-64752","WINGS FIELD AIRPORT",40.1,-75.267,"US","PA",20050101,20200108,"UNITED STATES","US","USA"
"561","720304-99999","WINGS FLD",40.133,-75.267,"US","PA",20040525,20041231,"UNITED STATES","US","USA"
"562","720305-53964","DECATUR MUNICIPAL AIRPORT",33.254,-97.581,"US","TX",20060101,20200108,"UNITED STATES","US","USA"
"563","720305-99999","DECATUR MUNI",33.25,-97.583,"US","TX",20040525,20051231,"UNITED STATES","US","USA"
"564","720306-53879","LEE'S SUMMIT MUNICIPAL APT",38.96,-94.371,"US","MO",20060101,20200108,"UNITED STATES","US","USA"
"565","720306-99999","LEE'S SUMMIT",38.956,-94.373,"US","MO",20040525,20051231,"UNITED STATES","US","USA"
"566","720307-63804","MADISON CO EXECUTIVE ARPT",34.861,-86.557,"US","AL",20060101,20200108,"UNITED STATES","US","USA"
"567","720307-99999","HUNTSVILLE",34.861,-86.557,"US","AL",20040525,20051231,"UNITED STATES","US","USA"
"568","720308-99999","MILLARD",41.196,-96.112,"US","NE",20040525,20051231,"UNITED STATES","US","USA"
"569","720309-99999","MT PLEASANT MUNI",40.95,-91.517,"US","IA",20040525,20051231,"UNITED STATES","US","USA"
"570","720311-53962","MOUNT PLEASANT RGNL ARPT",33.096,-94.961,"US","TX",20060101,20200108,"UNITED STATES","US","USA"
"571","720311-99999","MT PLEASANT",33.1,-94.967,"US","TX",20040525,20051231,"UNITED STATES","US","USA"
"572","720312-99999","PELLA MUNI",41.4,-92.95,"US","IA",20040525,20051231,"UNITED STATES","US","USA"
"573","720313-99999","PERRY LEFORS FLD",35.617,-100.983,"US","NM",20040525,20051231,"UNITED STATES","US","USA"
"574","720314-93983","PALESTINE MUNICIPAL ARPT",31.78,-95.706,"US","TX",20060101,20200108,"UNITED STATES","US","USA"
"575","720314-99999","PALESTINE MUNI",31.783,-95.7,"US","TX",20040525,20051231,"UNITED STATES","US","USA"
"576","720315-99999","PERRYTON OCHILTREE",36.417,-100.75,"US","TX",20040525,20051231,"UNITED STATES","US","USA"
"577","720316-12984","NUECES COUNTY ARIPORT",27.779,-97.691,"US","TX",20060101,20200108,"UNITED STATES","US","USA"
"578","720316-99999","UECES CO",27.783,-97.683,"US","TX",20040716,20051231,"UNITED STATES","US","USA"
"579","720317-99999","STAFFORD RGNL",38.4,-77.45,"US","VA",20040525,20051231,"UNITED STATES","US","USA"
"580","720318-53965","GRAHAM MUNICIPAL AIRPORT",33.11,-98.555,"US","TX",20060101,20200108,"UNITED STATES","US","USA"
"581","720318-99999","GRAHAM MUNI",33.11,-98.555,"US","TX",20040525,20051231,"UNITED STATES","US","USA"
"582","720319-63841","ROBINSON MUNICIPAL AIRPORT",39.016,-87.65,"US","IL",20060101,20200108,"UNITED STATES","US","USA"
"583","720319-99999","ROBINSON MUNI",39.017,-87.65,"US","IL",20040525,20051231,"UNITED STATES","US","USA"
"584","720320-53981","CLEBURNE MUNICIPAL AIRPORT",32.354,-97.434,"US","TX",20060101,20200108,"UNITED STATES","US","USA"
"585","720320-99999","CLEBURNE MUNI",32.35,-97.433,"US","TX",20040803,20051231,"UNITED STATES","US","USA"
"586","720321-99999","CHEBOYGAN CO",45.65,-84.517,"US","MI",20040525,20051231,"UNITED STATES","US","USA"
"587","720322-99999","SANDPOINT",48.3,-116.567,"US","ID",20040525,20051231,"UNITED STATES","US","USA"
"588","720323-93947","GILLESPIE CO",30.243,-98.91,"US","TX",20060101,20200108,"UNITED STATES","US","USA"
"589","720323-99999","GILLESPIE CO",30.243,-98.909,"US","TX",20040525,20051231,"UNITED STATES","US","USA"
"590","720324-64753","QUAKERTOWN AIRPORT",40.435,-75.382,"US","PA",20060101,20200109,"UNITED STATES","US","USA"
"591","720324-99999","QUAKERTOWN",40.433,-75.383,"US","PA",20040525,20051231,"UNITED STATES","US","USA"
"592","720326-99999","VINTON VETERANS MEM",42.217,-92.033,"US","IA",20040525,20051231,"UNITED STATES","US","USA"
"593","720327-99999","MENOMONIE AFLD",44.883,-91.867,"US","WI",20040525,20051231,"UNITED STATES","US","USA"
"594","720328-63832","UPSHUR COUNTY RGNL AIRPORT",39,-80.274,"US","WV",20060101,20200108,"UNITED STATES","US","USA"
"595","720328-99999","UPSHUR CO RGNL",39,-80.267,"US","WV",20040525,20051231,"UNITED STATES","US","USA"
"596","720329-99999","CABLE",34.112,-117.688,"US","CA",20171207,20200107,"UNITED STATES","US","USA"
"597","720330-63853","MOUNT CARMEL MUNICIPAL AIRPORT",38.607,-87.727,"US","IL",20060101,20200108,"UNITED STATES","US","USA"
"598","720330-99999","MT CARMEL MUNI",38.6,-87.733,"US","IL",20040803,20051231,"UNITED STATES","US","USA"
"599","720331-99999","KENNETT MEM",36.226,-90.037,"US","MO",20151210,20200107,"UNITED STATES","US","USA"
"600","720333-53175","CORONA MUNICIPAL AIRPORT",33.898,-117.602,"US","CA",20060907,20200108,"UNITED STATES","US","USA"
"601","720333-99999","CORONA MUNI",33.9,-117.6,"US","CA",20080101,20180303,"UNITED STATES","US","USA"
"602","720334-93764","GAITHERSBURG MONTGOMERY COUNTY AIR PARK",39.167,-77.167,"US","MD",20071017,20200108,"UNITED STATES","US","USA"
"603","720334-99999","MONTGOMERY CO AIRPARK",39.168,-77.166,"US","MD",20080101,20081231,"UNITED STATES","US","USA"
"604","720339-99999","RYAN FLD",32.142,-111.175,"US","AZ",20080101,20180514,"UNITED STATES","US","USA"
"605","720340-54818","FRANKFORT DOW MEMORIAL FIELD AIRPORT",44.626,-86.201,"US","MI",20060101,20200108,"UNITED STATES","US","USA"
"606","720340-99999","FRANKLIN DOW MEM FLD",44.625,-86.201,"US","MI",20040824,20051231,"UNITED STATES","US","USA"
"607","720342-53947","WATONGA AIRPORT",35.864,-98.421,"US","OK",20060101,20200108,"UNITED STATES","US","USA"
"608","720342-99999","WATONGA RGNL",35.867,-98.421,"US","OK",20041109,20051231,"UNITED STATES","US","USA"
"609","720343-54852","WAUPACA MUNICIPAL AIRPORT",44.333,-89.02,"US","WI",20060101,20200108,"UNITED STATES","US","USA"
"610","720343-99999","WAUPACA MUNI",44.333,-89.017,"US","WI",20041109,20051231,"UNITED STATES","US","USA"
"611","720344-54920","CHEROKEE MUNICIPAL AIRPORT/",42.732,-95.556,"US","IA",20060101,20200108,"UNITED STATES","US","USA"
"612","720344-99999","CHEROKEE MUNI",42.733,-95.55,"US","IA",20050406,20051231,"UNITED STATES","US","USA"
"613","720345-94086","RALPH WENZ FIELD AIRPORT",42.796,-109.807,"US","WY",20060101,20200109,"UNITED STATES","US","USA"
"614","720345-99999","RALPH WENZ FLD",42.8,-109.8,"US","WY",20041109,20051231,"UNITED STATES","US","USA"
"615","720346-53991","ALLEN PARISH AIRPORT",30.75,-92.688,"US","LA",20050408,20200108,"UNITED STATES","US","USA"
"616","720347-63877","GREENE COUNTY REGIONAL AIRPORT",33.598,-83.139,"US","GA",20060101,20200108,"UNITED STATES","US","USA"
"617","720347-99999","GREENE COUNTY RGNL",33.6,-83.133,"US","GA",20050427,20051231,"UNITED STATES","US","USA"
"618","720348-63886","BALDWIN COUNTY AIRPORT",33.154,-83.241,"US","GA",20060101,20200108,"UNITED STATES","US","USA"
"619","720348-99999","BALDWIN CO",33.154,-83.241,"US","GA",20050427,20051231,"UNITED STATES","US","USA"
"620","720351-54919","OSKALOOSA MUNICIPAL AIRPORT",41.226,-92.491,"US","IA",20060101,20200108,"UNITED STATES","US","USA"
"621","720351-99999","OSKALOOSA MUNI",41.233,-92.5,"US","IA",20050507,20051231,"UNITED STATES","US","USA"
"622","720352-99999","MISSISSIPPI CANYON",28.17,-89.22,"US","LA",20050507,20111007,"UNITED STATES","US","USA"
"623","720353-63875","MIDDLESBORO-BELL COUNTY AIRPORT",36.611,-83.738,"US","KY",20060101,20200108,"UNITED STATES","US","USA"
"624","720353-99999","MIDDLESBORO BELL CO",36.617,-83.733,"US","KY",20050524,20051231,"UNITED STATES","US","USA"
"625","720354-63901","ALTUS/QUARTZ MOUNTAIN REGIONAL AIRPORT",34.699,-99.338,"US","OK",20050524,20200108,"UNITED STATES","US","USA"
"626","720355-99999","GREATER CUMBERLAND",39.617,-78.767,"US","MD",20050524,20050524,"UNITED STATES","US","USA"
"627","720356-13999","CLINTON REGIONAL AIRPORT",35.538,-98.933,"US","OK",20050611,20200108,"UNITED STATES","US","USA"
"628","720357-53993","CUSHING MUNICIPAL AIRPORT",35.95,-96.773,"US","OK",20060101,20200108,"UNITED STATES","US","USA"
"629","720357-99999","CUSHING MUNI",35.95,-96.767,"US","OK",20050611,20051231,"UNITED STATES","US","USA"
"630","720358-53999","EL RENO REGIONAL AIRPORT",35.473,-98.006,"US","OK",20050817,20200108,"UNITED STATES","US","USA"
"631","720359-23902","SEMINOLE MUNICIPAL AIRPORT",35.275,-96.675,"US","OK",20050611,20200108,"UNITED STATES","US","USA"
"632","720361-63870","FLORALA MUNI",31.043,-86.312,"US","AL",20060511,20200108,"UNITED STATES","US","USA"
"633","720362-63874","MAC CRENSHAW MEMORIAL AIRPORT",31.846,-86.611,"US","AL",20060901,20200108,"UNITED STATES","US","USA"
"634","720363-63872","WEEDON FIELD AIRPORT",31.951,-85.129,"US","AL",20060901,20190304,"UNITED STATES","US","USA"
"635","720365-24267","BROOKINGS AIRPORT",42.074,-124.29,"US","OR",20050802,20200108,"UNITED STATES","US","USA"
"636","720365-99999","BROOKINGS AIRPORT",42.074,-124.29,"US","OR",20050729,20180520,"UNITED STATES","US","USA"
"637","720366-63879","BRAXTON CO",38.687,-80.652,"US","WV",20060101,20090815,"UNITED STATES","US","USA"
"638","720366-99999","BRAXTON CO",38.687,-80.652,"US","WV",20050801,20051231,"UNITED STATES","US","USA"
"639","720367-54927","PAYNESVILLE MUNICIPAL AP",45.372,-94.746,"US","MN",20050812,20200108,"UNITED STATES","US","USA"
"640","720367-99999","PAYNESVILLE MUNI",45.372,-94.747,"US","MN",20080101,20180211,"UNITED STATES","US","USA"
"641","720368-54924","SLAYTON MUNICIPAL AIRPORT",43.987,-95.783,"US","MN",20050811,20200108,"UNITED STATES","US","USA"
"642","720371-54850","HREE RIVERS MUNICIPAL DR HAINES AIRPORT",41.96,-85.593,"US","MI",20061024,20200108,"UNITED STATES","US","USA"
"643","720373-92824","PLANT CITY MUNICIPAL AIRPORT",28,-82.164,"US","FL",20061024,20200108,"UNITED STATES","US","USA"
"644","720374-92825","PETER O KNIGHT AIRPORT",27.916,-82.449,"US","FL",20061024,20200108,"UNITED STATES","US","USA"
"645","720375-54844","DRUMMOND ISLAND AIRPORT",46.007,-83.743,"US","MI",20060831,20200109,"UNITED STATES","US","USA"
"646","720376-63880","THE ALBERTVILLE MUNI ARPT-THOMAS J BRUMLIK FLD",34.229,-86.256,"US","AL",20060403,20200108,"UNITED STATES","US","USA"
"647","720377-13917","NEWPORT MUNI",35.633,-91.167,"US","AR",20060501,20200108,"UNITED STATES","US","USA"
"648","720377-99999","NEWPORT MUNI",35.638,-91.176,"US","AR",20080101,20180322,"UNITED STATES","US","USA"
"649","720378-99999","NEW CASTLE MUNI",41.025,-80.413,"US","PA",20080101,20180501,"UNITED STATES","US","USA"
"650","720379-63882","WAYNE COUNTY AIRPORT",36.855,-84.856,"US","KY",20060501,20200108,"UNITED STATES","US","USA"
"651","720381-63885","JACK EDWARDS AIRPORT",30.291,-87.672,"US","AL",20060501,20200108,"UNITED STATES","US","USA"
"652","720382-99999","ST MICHAEL",63.49,-162.11,"US","AK",20080101,20180513,"UNITED STATES","US","USA"
"653","720383-53847","WHITING FIELD NAVAL AIR STATION-SOUTH",30.704,-87.023,"US","FL",20070116,20200108,"UNITED STATES","US","USA"
"654","720384-99999","STEVENSVILLE",38.967,-76.333,"US","MD",20080101,20180103,"UNITED STATES","US","USA"
"655","720385-99999","BERTHOUD PASS",39.8,-105.767,"US","CO",20080101,20180520,"UNITED STATES","US","USA"
"656","720386-99999","WILLMAR MUNI",45.117,-95.133,"US","MN",20050101,20180322,"UNITED STATES","US","USA"
"657","720387-99999","HOBBS",32.767,-103.217,"US","NM",20070401,20120227,"UNITED STATES","US","USA"
"658","720388-99999","PUYALLUP THUN FIELD",47.1,-122.283,"US","WA",20080101,20180514,"UNITED STATES","US","USA"
"659","720389-99999","ST MARY'S RGNL / LEONARD TOWN",38.317,-76.55,"US","MD",20070521,20130430,"UNITED STATES","US","USA"
"660","720391-99999","BEEVILLE MUNI",28.35,-97.717,"US","TX",20080101,20180514,"UNITED STATES","US","USA"
"661","720392-99999","HOMERVILLE",31.056,-82.774,"US","GA",20080101,20180514,"UNITED STATES","US","USA"
"662","720393-99999","HEREFORD MUNI",34.858,-102.326,"US","TX",20080101,20180514,"UNITED STATES","US","USA"
"663","720394-99999","DEXTER B FLORENCE MEM FLD",34.1,-93.066,"US","AR",20080101,20180514,"UNITED STATES","US","USA"
"664","720395-99999","PLEASANTON MUNI",28.954,-98.52,"US","TX",20080101,20180514,"UNITED STATES","US","USA"
"665","720396-99999","TP MCCAMPBELL",27.913,-97.212,"US","TX",20070521,20070717,"UNITED STATES","US","USA"
"666","720397-99999","OHIO UNIVERSITY SNYDER FLD",39.211,-82.231,"US","OH",20080101,20180501,"UNITED STATES","US","USA"
"667","720398-99999","WAUTOMA MUNI",44.042,-89.304,"US","WI",20070521,20130425,"UNITED STATES","US","USA"
"668","720399-99999","CAMP BLANDING AAF",29.952,-81.98,"US","FL",20080602,20141003,"UNITED STATES","US","USA"
"669","720401-99999","CLINTON MUNI",35.6,-92.45,"US","AR",20080101,20180514,"UNITED STATES","US","USA"
"670","720402-99999","SKYHAVEN",38.784,-93.803,"US","MO",20070628,20080106,"UNITED STATES","US","USA"
"671","720403-99999","KICKAPOO DOWNTOWN AIRPARK",33.858,-98.49,"US","TX",20070628,20071015,"UNITED STATES","US","USA"
"672","720404-99999","KICKAPOO DOWNTOWN AIRPORT",33.85,-98.483,"US","TX",20080101,20081231,"UNITED STATES","US","USA"
"673","720405-99999","BLAIR MUNI AIRPORT",41.417,-96.117,"US","NE",20080107,20180430,"UNITED STATES","US","USA"
"674","720406-99999","GNOSS FIELD AIRPORT",38.15,-122.55,"US","CA",20071114,20140730,"UNITED STATES","US","USA"
"675","720407-99999","ROBERT J MILLER AIRPARK",39.933,-74.3,"US","NJ",20080101,20180520,"UNITED STATES","US","USA"
"676","720408-99999","COATESVILLE/CARLSON AIRPORT",39.983,-75.867,"US","PA",20080101,20180514,"UNITED STATES","US","USA"
"677","720409-99999","BLAIRSVILLE AIRPORT",34.85,-83.983,"US","GA",20080101,20200107,"UNITED STATES","US","USA"
"678","720411-99999","ANGEL FIRE",36.417,-105.29,"US","NM",20080107,20180514,"UNITED STATES","US","USA"
"679","720412-54943","PERRY MUNICIPAL AIRPORT",41.828,-94.16,"US","IA",20090101,20200108,"UNITED STATES","US","USA"
"680","720412-99999","PERRY MUNI",41.828,-94.16,"US","IA",20080115,20180520,"UNITED STATES","US","USA"
"681","720413-99999","HALEYVIILLE / POSEY FIELD",34.267,-87.6,"US","AL",20080229,20180514,"UNITED STATES","US","USA"
"682","720414-99999","KNOX COUNTY",40.333,-82.517,"US","OH",20080229,20180520,"UNITED STATES","US","USA"
"683","720415-99999","FREMONT MUNI",43.433,-86,"US","MI",20080229,20180514,"UNITED STATES","US","USA"
"684","720417-99999","JOHNSON (STANTON CO MUNI)",37.583,-101.733,"US","KS",20160302,20200107,"UNITED STATES","US","USA"
"685","720424-99999","CAMP RED DEVIL",38.5,-104.917,"US","CO",20131119,20131119,"UNITED STATES","US","USA"
"686","720425-99999","HUGOTON MUNI",37.163,-101.371,"US","KS",20151020,20200107,"UNITED STATES","US","USA"
"687","720426-99999","INDEPENDENCE MUNICIPAL AIRPORT",37.158,-95.778,"US","KS",20180101,20180514,"UNITED STATES","US","USA"
"688","720431-99999","LARNED PAWNEE CO",38.209,-99.086,"US","KS",20170615,20180828,"UNITED STATES","US","USA"
"689","720433-99999","NORTON MUNI",39.85,-99.895,"US","KS",20181017,20181017,"UNITED STATES","US","USA"
"690","720434-99999","OAKLEY MUNI",39.11,-100.816,"US","KS",20190425,20200107,"UNITED STATES","US","USA"
"691","720436-99999","ATKINSON MUNI",37.449,-94.731,"US","KS",20180106,20180322,"UNITED STATES","US","USA"
"692","720437-99999","CHEYENNE CO MUNI",39.761,-101.796,"US","KS",20180101,20180514,"UNITED STATES","US","USA"
"693","720438-99999","SCOTT CITY MUNI",38.474,-100.885,"US","KS",20190429,20200107,"UNITED STATES","US","USA"
"694","720439-99999","ULYSSES",37.604,-101.374,"US","KS",20180524,20190814,"UNITED STATES","US","USA"
"695","720443-99999","MADISONVILLE MUNI",37.355,-87.4,"US","KY",20111021,20130430,"UNITED STATES","US","USA"
"696","720445-99999","CAMPBELLVILLE / TAYLOR CO",37.358,-85.309,"US","KY",20180719,20191216,"UNITED STATES","US","USA"
"697","720446-99999","SAMUELS FLD / BARDSTOWN",37.814,-85.5,"US","KY",20171207,20200107,"UNITED STATES","US","USA"
"698","720448-99999","STUART POWELL FLD",37.578,-84.77,"US","KY",20080325,20180514,"UNITED STATES","US","USA"
"699","720449-99999","ASHLAND RGNL",38.555,-82.738,"US","KY",20140813,20200107,"UNITED STATES","US","USA"
"700","720451-99999","ADDINGTON FLD",37.686,-85.925,"US","KY",20161110,20200107,"UNITED STATES","US","USA"
"701","720452-99999","FLEMING/MASON AIRPORT",38.542,-83.743,"US","KY",20140307,20200107,"UNITED STATES","US","USA"
"702","720455-99999","MADISON / RICHMOND",37.631,-84.332,"US","KY",20180101,20180514,"UNITED STATES","US","USA"
"703","720456-99999","MT STERLING MONTGOMERY CO",38.058,-83.98,"US","KY",20180101,20180514,"UNITED STATES","US","USA"
"704","720458-99999","BLUEBIRD",35.403,-96.832,"US","OK",20180101,20180514,"UNITED STATES","US","USA"
"705","720464-99999","PIKE CO HATCHER FLD",37.562,-82.566,"US","KY",20140923,20200107,"UNITED STATES","US","USA"
"706","720465-99999","WILLIAMSBURG (WHITLEY CO ARPT)",36.8,-84.2,"US","KY",20160302,20200107,"UNITED STATES","US","USA"
"707","720466-99999","SUPERDOME HELIPORT",29.95,-90.083,"US","LA",20120726,20150128,"UNITED STATES","US","USA"
"708","720467-99999","GEORGE R CARR MEM AIR FLD",30.814,-89.865,"US","LA",20180107,20180514,"UNITED STATES","US","USA"
"709","720472-99999","STEVEN A BEAN MUNI",44.992,-70.665,"US","ME",20170116,20200107,"UNITED STATES","US","USA"
"710","720475-99999","NORTHWEST MISSOURI RGNL",40.353,-94.915,"US","MO",20170105,20190721,"UNITED STATES","US","USA"
"711","720477-99999","FLOYD W JONES LEBANON",37.648,-92.652,"US","MO",20170630,20200107,"UNITED STATES","US","USA"
"712","720478-99999","LAWRENCE SMITH MEM",38.611,-94.342,"US","MO",20161216,20200107,"UNITED STATES","US","USA"
"713","720479-99999","MONETT MUNI",36.9,-94.017,"US","MO",20180106,20180322,"UNITED STATES","US","USA"
"714","720481-99999","MALDEN MUNI",36.601,-89.992,"US","MO",20160517,20200107,"UNITED STATES","US","USA"
"715","720482-99999","OMAR N BRADLEY",39.464,-92.427,"US","MO",20170924,20190304,"UNITED STATES","US","USA"
"716","720483-99999","MARSHALL MEM MUNI",39.096,-93.203,"US","MO",20141202,20200107,"UNITED STATES","US","USA"
"717","720484-99999","MEXICO MEM",39.158,-91.818,"US","MO",20160426,20200107,"UNITED STATES","US","USA"
"718","720487-99999","WARSAW MUNI",38.347,-93.345,"US","MO",20170908,20190925,"UNITED STATES","US","USA"
"719","720488-99999","SIKESTON MEM MUNI",36.899,-89.562,"US","MO",20150128,20200107,"UNITED STATES","US","USA"
"720","720491-99999","GWINNER ROGER MELROE FLD",46.219,-97.643,"US","ND",20101227,20180430,"UNITED STATES","US","USA"
"721","720492-99999","CALEDONIA COUNTY AIRPORT",44.567,-72.017,"US","VT",20080422,20081231,"UNITED STATES","US","USA"
"722","720493-54758","NEWPORT AP",44.883,-72.233,"US","VT",20090101,20200109,"UNITED STATES","US","USA"
"723","720493-99999","NEWPORT STATE",44.889,-72.229,"US","VT",20080423,20180514,"UNITED STATES","US","USA"
"724","720498-99999","CHESTERFIELD AIRPORT",37.4,-77.517,"US","VA",20180207,20180514,"UNITED STATES","US","USA"
"725","720499-99999","HAMPTON ROADS EXECUTIVE AIRPORT",36.78,-76.449,"US","VA",20180101,20180520,"UNITED STATES","US","USA"
"726","720501-99999","ESSEX CO AIRPORT",37.85,-76.883,"US","VA",20080401,20180514,"UNITED STATES","US","USA"
"727","720504-99999","TALLADEGA MUNI",33.57,-86.051,"US","AL",20120106,20200107,"UNITED STATES","US","USA"
"728","720505-99999","WALKER CO BEVILL FLD",33.902,-87.314,"US","AL",20180101,20180520,"UNITED STATES","US","USA"
"729","720507-99999","BESSEMER AIPORT",33.313,-86.926,"US","AL",20160714,20200107,"UNITED STATES","US","USA"
"730","720508-99999","MERKEL FLD SYLACAUGA MUNI",33.172,-86.306,"US","AL",20140114,20200107,"UNITED STATES","US","USA"
"731","720516-99999","AFTON MUNI",42.711,-110.942,"US","WY",20131113,20200107,"UNITED STATES","US","USA"
"732","720517-24165","KEMMERER MUNICIPAL AIRPORT",41.824,-110.557,"US","WY",20130627,20200108,"UNITED STATES","US","USA"
"733","720518-99999","FORT BRIDGER AIRPORT",41.392,-110.107,"US","WY",20120720,20120720,"UNITED STATES","US","USA"
"734","720519-99999","POWELL MUNI",44.867,-108.793,"US","WY",20140707,20200107,"UNITED STATES","US","USA"
"735","720521-99999","SHIVELY FLD",41.445,-106.824,"US","WY",20180101,20180514,"UNITED STATES","US","USA"
"736","720522-99999","DUBOIS MUNI AIRPORT",43.548,-109.69,"US","WY",20180101,20180514,"UNITED STATES","US","USA"
"737","720524-99999","FREMONT CO AIRPORT",38.428,-105.106,"US","CO",20120713,20130430,"UNITED STATES","US","USA"
"738","720529-99999","HOPKINS FIELD",38.233,-108.567,"US","CO",20080704,20080704,"UNITED STATES","US","USA"
"739","720531-99999","BLAKE FIELD / DELTA",38.783,-108.067,"US","CO",20180101,20180514,"UNITED STATES","US","USA"
"740","720532-99999","HARRIET- ALEXANDER FIELD",38.533,-106.05,"US","CO",20180101,20180514,"UNITED STATES","US","USA"
"741","720533-99999","BOULDER MUNICIPAL AIRPORT",40.039,-105.226,"US","CO",20180105,20180322,"UNITED STATES","US","USA"
"742","720534-99999","ERIE MUNI",40.017,-105.05,"US","CO",20100218,20140630,"UNITED STATES","US","USA"
"743","720535-99999","FORT MORGAN MUNI",40.334,-103.804,"US","CO",20180101,20180515,"UNITED STATES","US","USA"
"744","720536-99999","GRANBY GRAND CO",40.09,-105.917,"US","CO",20170703,20200107,"UNITED STATES","US","USA"
"745","720537-99999","HOLYOKE",40.569,-102.273,"US","CO",20180107,20180322,"UNITED STATES","US","USA"
"746","720538-99999","VANCE BRAND AIRPORT",40.167,-105.167,"US","CO",20180101,20180515,"UNITED STATES","US","USA"
"747","720539-99999","STEVENS FIELD",37.283,-107.05,"US","CO",20180101,20180515,"UNITED STATES","US","USA"
"748","720541-53806","OXFORD UNIV",34.383,-89.55,"US","MS",20090101,20200108,"UNITED STATES","US","USA"
"749","720541-99999","UNIVERSITY OXFORD",34.383,-89.533,"US","MS",20080530,20180515,"UNITED STATES","US","USA"
"750","720542-99999","LARGO VISTA / RUSTY ALLEN AIRPORT",30.5,-97.967,"US","TX",20080825,20180322,"UNITED STATES","US","USA"
"751","720543-99999","AUBURN / DE KALB CO",41.307,-85.064,"US","IN",20080612,20180514,"UNITED STATES","US","USA"
"752","720544-99999","STERLING MUNI",40.615,-103.265,"US","CO",20180128,20180515,"UNITED STATES","US","USA"
"753","720545-99999","CHESTER AIRPORT",41.384,-72.506,"US","CT",20080817,20180322,"UNITED STATES","US","USA"
"754","720546-99999","EUREKA",39.604,-116.005,"US","NV",20120209,20130430,"UNITED STATES","US","USA"
"755","720549-99999","CARSON CITY AIRPORT",39.192,-119.734,"US","NV",20180129,20180211,"UNITED STATES","US","USA"
"756","720551-99999","MINDEN TAHOE AIRPORT",39,-119.751,"US","NV",20140523,20200107,"UNITED STATES","US","USA"
"757","720553-99999","PORT AUTH DOWNTN MANHATTAN WALL ST HEL",40.701,-74.009,"US","NY",20160720,20200107,"UNITED STATES","US","USA"
"758","720558-99999","ELK CITY MUNI",35.431,-99.394,"US","OK",20180101,20180515,"UNITED STATES","US","USA"
"759","720559-99999","STAN STAMPER MUNI",34.035,-95.542,"US","OK",20180107,20180322,"UNITED STATES","US","USA"
"760","720561-99999","WILLIAM R POGUE MUNI",36.167,-96.15,"US","OK",20180102,20180515,"UNITED STATES","US","USA"
"761","720562-99999","RANGE OP 13 / YAKIMA TRAINING CENTER",46.8,-120.167,"US","WA",20080530,20170920,"UNITED STATES","US","USA"
"762","720565-99999","HEBER CITY MUNICIPAL AIRPORT",40.482,-111.429,"US","UT",20100412,20200107,"UNITED STATES","US","USA"
"763","720567-24180","BRIGHAM CITY AIRPORT",41.552,-112.062,"US","UT",20140724,20200108,"UNITED STATES","US","USA"
"764","720569-99999","KANAB MUNI",37.011,-112.531,"US","UT",20130813,20200107,"UNITED STATES","US","USA"
"765","720572-99999","BOLINDER FIELD TOOELE VALLEY",40.612,-112.351,"US","UT",20150506,20200107,"UNITED STATES","US","USA"
"766","720575-99999","INDIANAPOLIS EXECUTIVE",40.031,-86.251,"US","IN",20080721,20131231,"UNITED STATES","US","USA"
"767","720576-99999","DAVIS",38.533,-121.783,"US","CA",20080721,20180514,"UNITED STATES","US","USA"
"768","720577-99999","HENDERSON/RUSK COUNTY AIRPORT",32.15,-94.85,"US","TX",20080721,20180515,"UNITED STATES","US","USA"
"769","720578-99999","STEPHENS CO",32.719,-98.891,"US","TX",20080721,20180514,"UNITED STATES","US","USA"
"770","720579-99999","CASTROVILLE MUNI",29.342,-98.851,"US","TX",20080825,20130430,"UNITED STATES","US","USA"
"771","720581-99999","LINDEN",40.617,-74.245,"US","NJ",20080721,20161231,"UNITED STATES","US","USA"
"772","720582-99999","TODD FLD",45.899,-94.874,"US","MN",20080721,20130430,"UNITED STATES","US","USA"
"773","720583-99999","LAKE ELMO",44.997,-92.856,"US","MN",20080721,20130430,"UNITED STATES","US","USA"
"774","720584-99999","ZAPATA",26.967,-99.25,"US","TX",20080721,20180515,"UNITED STATES","US","USA"
"775","720585-99999","ELBOW LAKE MUNI",45.986,-95.992,"US","MN",20080721,20130430,"UNITED STATES","US","USA"
"776","720586-99999","PLATTEVILLE MUNI",42.689,-90.444,"US","WI",20080825,20180515,"UNITED STATES","US","USA"
"777","720587-99999","CHRIS CRUSTA MEMORIAL AIRPORT / ABBEVILLE",29.976,-92.084,"US","LA",20080825,20180515,"UNITED STATES","US","USA"
"778","720588-99999","OXFORD",34.383,-89.533,"US","MS",20080825,20081231,"UNITED STATES","US","USA"
"779","720589-99999","SHAWANO",44.783,-88.55,"US","WI",20080915,20180322,"UNITED STATES","US","USA"
"780","720592-99999","FAIRHOPE/SONNY CALLAHAN AIRPORT",30.461,-87.877,"US","AL",20081022,20180515,"UNITED STATES","US","USA"
"781","720593-99999","KNOX/STARKE CO",41.333,-86.667,"US","IN",20081022,20180410,"UNITED STATES","US","USA"
"782","720594-99999","HOUSTON/DUNN HELISTOP",29.717,-95.383,"US","TX",20081022,20180521,"UNITED STATES","US","USA"
"783","720596-99999","NEWBERRY",34.3,-81.633,"US","SC",20180101,20180514,"UNITED STATES","US","USA"
"784","720597-99999","LAURENS",34.5,-81.95,"US","SC",20180101,20180515,"UNITED STATES","US","USA"
"785","720598-99999","MONCKS CORNER",33.183,-80.033,"US","SC",20180104,20180322,"UNITED STATES","US","USA"
"786","720599-99999","CHESTER",34.783,-81.2,"US","SC",20180129,20180207,"UNITED STATES","US","USA"
"787","720601-99999","AIKEN MUNI",33.649,-81.685,"US","SC",20180101,20180515,"UNITED STATES","US","USA"
"788","720602-99999","BARNWELL CO",33.258,-81.388,"US","SC",20180101,20180515,"UNITED STATES","US","USA"
"789","720603-99999","CAMDEN/WOODWARD FLD",34.283,-80.567,"US","SC",20180102,20180410,"UNITED STATES","US","USA"
"790","720605-99999","CHERAW",34.717,-79.95,"US","SC",20180101,20180515,"UNITED STATES","US","USA"
"791","720606-99999","CHARLESTON EXECUTIVE",32.701,-80.003,"US","SC",20090105,20180322,"UNITED STATES","US","USA"
"792","720607-99999","LANCASTER CO MC WHIRTER FLD",34.723,-80.855,"US","SC",20180101,20180515,"UNITED STATES","US","USA"
"793","720608-99999","MARION CO",34.181,-79.335,"US","SC",20180108,20180514,"UNITED STATES","US","USA"
"794","720609-99999","WALTERBORO/LOWCOUNTRY RGNL",32.921,-80.641,"US","SC",20090105,20121231,"UNITED STATES","US","USA"
"795","720611-99999","SUMTER",34,-80.367,"US","SC",20180126,20180515,"UNITED STATES","US","USA"
"796","720612-99999","BEAUFORT",32.4,-80.633,"US","SC",20180104,20180322,"UNITED STATES","US","USA"
"797","720613-99999","CONWAY HORRY CO",33.829,-79.122,"US","SC",20180101,20180520,"UNITED STATES","US","USA"
"798","720615-99999","COLUMBIA",38.03,-120.415,"US","CA",20180104,20180515,"UNITED STATES","US","USA"
"799","720616-99999","BRANSON AIRPORT",36.533,-93.2,"US","MO",20180101,20180515,"UNITED STATES","US","USA"
"800","720617-99999","HUSTON/EXECUTIVE",29.8,-95.9,"US","",20180128,20180207,"UNITED STATES","US","USA"
"801","720619-99999","FRANCIS E WARREN AFB HELIPORT",41.133,-104.867,"US","WY",20090423,20200107,"UNITED STATES","US","USA"
"802","720622-99999","BOWIE MUNI",33.602,-97.776,"US","TX",20090320,20130430,"UNITED STATES","US","USA"
"803","720623-99999","ELIZABETHTON MUNI",36.371,-82.173,"US","TN",20090325,20130430,"UNITED STATES","US","USA"
"804","720624-99999","MADISON MUNI",44.016,-97.086,"US","SD",20180102,20180514,"UNITED STATES","US","USA"
"805","720625-99999","BLACKWELL TONKAWA MUNI",36.75,-97.35,"US","OK",20180101,20180515,"UNITED STATES","US","USA"
"806","720626-99999","PAMPA M VISTA",35.883,-101.033,"US","TX",20090313,20180520,"UNITED STATES","US","USA"
"807","720627-99999","STIGLER RGNL",35.283,-95.1,"US","OK",20180301,20180514,"UNITED STATES","US","USA"
"808","720628-99999","OKLAHOMA CITY/PAGE",35.483,-97.817,"US","OK",20090312,20180515,"UNITED STATES","US","USA"
"809","720629-99999","JACK BARSTOW",43.663,-84.261,"US","MI",20180101,20180515,"UNITED STATES","US","USA"
"810","720631-99999","MARLBORO CO JETPORT H E AVENT",34.622,-79.734,"US","SC",20090403,20180515,"UNITED STATES","US","USA"
"811","720632-99999","SUMMERVILLE",33.063,-80.279,"US","SC",20180101,20180515,"UNITED STATES","US","USA"
"812","720633-99999","HARTSVILLE RGNL",34.403,-80.119,"US","SC",20180101,20180514,"UNITED STATES","US","USA"
"813","720634-99999","FAIRFIELD CO/WINNSBORO",34.315,-81.109,"US","SC",20180107,20180322,"UNITED STATES","US","USA"
"814","720635-99999","H A CLARK MEM FLD",35.302,-112.194,"US","AZ",20180101,20180514,"UNITED STATES","US","USA"
"815","720636-99999","CLINTON MEM",38.357,-93.684,"US","MO",20090508,20180515,"UNITED STATES","US","USA"
"816","720637-99999","HOUSTON SOUTHWEST AIRPORT",29.506,-95.477,"US","TX",20180101,20180515,"UNITED STATES","US","USA"
"817","720638-99999","BEND MUNI AIRPORT",44.095,-121.2,"US","OR",20180101,20180515,"UNITED STATES","US","USA"
"818","720641-99999","SCHRIEVER AFB",38.8,-104.517,"US","CO",20121018,20180217,"UNITED STATES","US","USA"
"819","720642-99999","CHEYENNE MTN AS",38.75,-104.85,"US","CO",20121120,20200106,"UNITED STATES","US","USA"
"820","720643-54940","FOREST CITY MUNICIPAL AIRPORT",43.235,-93.624,"US","IA",20090714,20200108,"UNITED STATES","US","USA"
"821","720643-99999","FOREST CITY MUNI",43.233,-93.783,"US","IA",20090702,20180515,"UNITED STATES","US","USA"
"822","720644-99999","BUCKEYE MUNI",33.42,-112.686,"US","AZ",20090708,20121231,"UNITED STATES","US","USA"
"823","720645-99999","PLACERVILLE",38.724,-120.753,"US","CA",20180104,20180322,"UNITED STATES","US","USA"
"824","720648-99999","AUSTIN EXECUTIVE",30.395,-97.567,"US","TX",20180101,20180514,"UNITED STATES","US","USA"
"825","720649-99999","HALIFAX-NORTHAMPTON REGIONAL",36.33,-77.635,"US","NC",20180104,20180416,"UNITED STATES","US","USA"
"826","720652-99999","USMC MTN WARFARE TRAINING CENTER",38.35,-119.517,"US","CA",20090813,20180515,"UNITED STATES","US","USA"
"827","720654-99999","CORNING MUNI",36.404,-90.648,"US","AR",20090701,20130430,"UNITED STATES","US","USA"
"828","720655-99999","CRYSTAL RIVER",28.867,-82.571,"US","FL",20180107,20180322,"UNITED STATES","US","USA"
"829","720656-99999","MIDDLETON MUNI MOREY FLD",43.114,-89.532,"US","WI",20091104,20130430,"UNITED STATES","US","USA"
"830","720657-99999","HINCKLEY/FIELD OF DREAMS AIRPORT",46.023,-92.895,"US","MN",20091111,20130430,"UNITED STATES","US","USA"
"831","720658-99999","SAUK CENTRE MUNI",45.707,-94.933,"US","MN",20091111,20130430,"UNITED STATES","US","USA"
"832","720659-99999","OZONA MUNI",30.735,-101.203,"US","TX",20180101,20180514,"UNITED STATES","US","USA"
"833","720661-99999","IONIA CO",42.938,-85.061,"US","MI",20091203,20130430,"UNITED STATES","US","USA"
"834","720663-99999","VIROQUA MUNI",43.579,-90.913,"US","WI",20091216,20130430,"UNITED STATES","US","USA"
"835","720664-99999","OIL PLATFORM/INDEPENDENCE",28.083,-87.983,"US","LA",20091217,20091228,"UNITED STATES","US","USA"
"836","720665-99999","OIL PLATFORM/MAGNOLIA",27.2,-92.2,"US","LA",20091217,20180515,"UNITED STATES","US","USA"
"837","720666-99999","OIL PLATFORM/SHIP SHOAL",28.6,-91.2,"US","LA",20091217,20180515,"UNITED STATES","US","USA"
"838","720667-99999","OIL PLATFORM/INNOVATOR",28.217,-89.617,"US","MS",20091217,20140203,"UNITED STATES","US","USA"
"839","720668-99999","OIL PLATFORM/EAST BREAKS",27.817,-94.317,"US","TX",20091217,20180520,"UNITED STATES","US","USA"
"840","720669-99999","OIL PLATFORM/GUNNISON",27.3,-93.533,"US","TX",20091217,20180528,"UNITED STATES","US","USA"
"841","720671-99999","JESUP WAYNE CO",31.554,-81.883,"US","GA",20100111,20180520,"UNITED STATES","US","USA"
"842","720674-99999","WEST GEORGIA RGNL O V GRAY FLD",33.631,-85.152,"US","GA",20180101,20180515,"UNITED STATES","US","USA"
"843","720675-99999","INDIAN SPRINGS RANGE 63",36.53,-115.57,"US","NV",20050103,20111230,"UNITED STATES","US","USA"
"844","720681-99999","CALAVERAS CO MAURY RASMUSSEN FLD",38.146,-120.648,"US","CA",20160526,20200107,"UNITED STATES","US","USA"
"845","720684-99999","PHIFER AFLD",42.05,-104.933,"US","WY",20160331,20191231,"UNITED STATES","US","USA"
"846","720687-99999","HEMET RYAN",33.733,-117.017,"US","CA",20191121,20200107,"UNITED STATES","US","USA"
"847","720699-99999","CARROLL CO RGNL JAC",39.608,-77.008,"US","MD",20100218,20101231,"UNITED STATES","US","USA"
"848","720701-54942","OSCEOLA MUNICIPAL AIRPORT",41.052,-93.689,"US","IA",20100304,20200108,"UNITED STATES","US","USA"
"849","720701-99999","OSCEOLA MUNI",41.05,-93.683,"US","IA",20100218,20180520,"UNITED STATES","US","USA"
"850","720705-99999","JAMES A RHODES",38.981,-82.578,"US","OH",20190502,20200107,"UNITED STATES","US","USA"
"851","720709-99999","PUTNAM COUNTY AIRPORT",41.036,-83.982,"US","OH",20160909,20200107,"UNITED STATES","US","USA"
"852","720712-99999","HENRY TIFT MYERS AIRPORT",31.429,-83.489,"US","",20180101,20180515,"UNITED STATES","US","USA"
"853","720713-99999","DARKE COUNTY AIRPORT",40.204,-84.532,"US","OH",20180101,20180305,"UNITED STATES","US","USA"
"854","720714-99999","PAULDING COUNTY AIRPORT",33.912,-84.941,"US","GA",20180107,20180522,"UNITED STATES","US","USA"
"855","720716-99999","LURAY CAVERNS",38.667,-78.501,"US","VA",20111001,20130430,"UNITED STATES","US","USA"
"856","720717-99999","WEST DELTA OIL PLATFORM",29.117,-89.55,"US","MS",20100430,20180520,"UNITED STATES","US","USA"
"857","720718-99999","MISSISSIPPI CANYON OIL PLATFORM",28.65,-89.8,"US","LA",20100430,20180520,"UNITED STATES","US","USA"
"858","720719-99999","EAST CAMERON OIL PLATFORM",28.433,-92.883,"US","LA",20100430,20180520,"UNITED STATES","US","USA"
"859","720721-99999","SABINE OIL PLATFORM",29.483,-93.633,"US","LA",20100430,20180520,"UNITED STATES","US","USA"
"860","720722-99999","S MARSH OIL PLATFORM",29.117,-91.867,"US","LA",20100430,20180514,"UNITED STATES","US","USA"
"861","720723-99999","VERMILLION OIL PLATFORM",29.467,-92.367,"US","LA",20100430,20100502,"UNITED STATES","US","USA"
"862","720724-99999","BELEN RGNL ARPT",34.646,-106.836,"US","NM",20100503,20200107,"UNITED STATES","US","USA"
"863","720725-99999","BRAZOS 133",27.835,-96.011,"US","TX",20100504,20180515,"UNITED STATES","US","USA"
"864","720726-99999","GALVESTON 424",28.577,-94.977,"US","TX",20100504,20100506,"UNITED STATES","US","USA"
"865","720727-99999","HIGH ISLAND 376",27.962,-93.671,"US","TX",20100504,20180520,"UNITED STATES","US","USA"
"866","720729-99999","BRAZOS 451",28.5,-95.717,"US","TX",20100513,20180520,"UNITED STATES","US","USA"
"867","720731-99999","MUSTANG ISLAND 31",27.283,-96.733,"US","TX",20100513,20100517,"UNITED STATES","US","USA"
"868","720732-99999","MUSTANG ISLAND A85A",27.733,-96.183,"US","TX",20100513,20200107,"UNITED STATES","US","USA"
"869","720733-99999","BOERNE STAGE FLD",29.724,-98.695,"US","TX",20100511,20130430,"UNITED STATES","US","USA"
"870","720735-73805","NORTHWEST FLORIDA BEACHES INTL ARPT",30.349,-85.788,"US","FL",20110301,20200108,"UNITED STATES","US","USA"
"871","720735-99999","NW PANAMA CITY INTL",30.358,-85.799,"US","FL",20100523,20110228,"UNITED STATES","US","USA"
"872","720736-99999","FULTON CO",41.066,-86.182,"US","IN",20180103,20180515,"UNITED STATES","US","USA"
"873","720737-99999","CARRINGTON MUNI",47.451,-99.151,"US","ND",20180207,20180303,"UNITED STATES","US","USA"
"874","720738-99999","THOMASVILLE RGNL",30.902,-83.881,"US","GA",20180101,20180515,"UNITED STATES","US","USA"
"875","720739-99999","MINDEN-WEBSTER AIRPORT",32.646,-93.298,"US","LA",20180102,20180514,"UNITED STATES","US","USA"
"876","720741-99999","BOULDER CITY MUNI",35.947,-114.861,"US","NV",20180101,20180515,"UNITED STATES","US","USA"
"877","720742-99999","FAITH RANCH AIRPORT",28.209,-100.019,"US","TX",20100618,20180520,"UNITED STATES","US","USA"
"878","720743-99999","S PADRE ISLAND HELIPORT",26.071,-97.157,"US","TX",20100618,20100629,"UNITED STATES","US","USA"
"879","720744-99999","PICKENS CO AIRPORT",34.81,-82.703,"US","SC",20100719,20180322,"UNITED STATES","US","USA"
"880","720745-99999","BOOMVANG HELIPORT / OIL PLATFORM",27.35,-94.633,"US","",20100722,20180520,"UNITED STATES","US","USA"
"881","720747-99999","ELK MOUNTAIN",41.733,-106.467,"US","WY",20100914,20191126,"UNITED STATES","US","USA"
"882","720749-24255","WHIDBEY ISLAND NAS",48.35,-122.667,"US","WA",20050101,20200108,"UNITED STATES","US","USA"
"883","720753-99999","KEN JERNSTEDT",45.672,-121.536,"US","OR",20060112,20070516,"UNITED STATES","US","USA"
"884","720759-99999","RAVALLI CO",46.251,-114.125,"US","MT",20190410,20200107,"UNITED STATES","US","USA"
"885","720768-99999","LEE CO",36.654,-83.218,"US","VA",20180101,20180515,"UNITED STATES","US","USA"
"886","720769-99999","GEORGE M BRYAN",33.433,-88.849,"US","MS",20100923,20121231,"UNITED STATES","US","USA"
"887","720771-99999","COLEMAN MUNI",31.841,-99.404,"US","TX",20180106,20180515,"UNITED STATES","US","USA"
"888","720772-99999","MORIARTY AIRPORT",34.986,-106.009,"US","NM",20101013,20130430,"UNITED STATES","US","USA"
"889","720773-99999","COURTLAND AIRPORT",34.659,-87.349,"US","AL",20101018,20130430,"UNITED STATES","US","USA"
"890","720775-99999","ELLINGTON",35.507,-86.804,"US","TN",20180403,20200107,"UNITED STATES","US","USA"
"891","720776-99999","HESLER NOBLE FLD",31.673,-89.172,"US","MS",20121118,20200107,"UNITED STATES","US","USA"
"892","720777-99999","LAWRENCEVILLE BRUNSWICK MUNI",36.773,-77.794,"US","VA",20140625,20200107,"UNITED STATES","US","USA"
"893","720779-99999","MEXIA LIMESTONE CO",31.64,-96.515,"US","TX",20180109,20180211,"UNITED STATES","US","USA"
"894","720781-99999","LYONS RICE CO MUNI",38.343,-98.227,"US","KS",20180719,20200107,"UNITED STATES","US","USA"
"895","720787-99999","JOHN BELL WILLIAMS AIRPORT",32.304,-90.411,"US","MS",20180102,20180103,"UNITED STATES","US","USA"
"896","720806-99999","PANOLA CO SHARPE FLD",32.176,-94.299,"US","TX",20190920,20200107,"UNITED STATES","US","USA"
"897","720815-99999","PUTNAM CO",39.63,-86.814,"US","IN",20140313,20170222,"UNITED STATES","US","USA"
"898","720835-99999","MADELINE ISLAND",46.789,-90.759,"US","WI",20161111,20200107,"UNITED STATES","US","USA"
"899","720839-99999","RENO / STEAD AIRPORT",39.668,-119.876,"US","NV",20180101,20180515,"UNITED STATES","US","USA"
"900","720852-99999","MEADOW LAKE AIRPORT",38.946,-104.57,"US","CO",20180110,20180515,"UNITED STATES","US","USA"
"901","720853-99999","ROLLA MUNI",48.884,-99.621,"US","ND",20180104,20180322,"UNITED STATES","US","USA"
"902","720854-99999","BEACH",46.925,-103.982,"US","ND",20180101,20180515,"UNITED STATES","US","USA"
"903","720855-99999","CAVALIER MUNI",48.784,-97.632,"US","ND",20180101,20180515,"UNITED STATES","US","USA"
"904","720856-99999","SCOTTSBORO MUNI WORD FLD",34.689,-86.006,"US","AL",20180101,20180430,"UNITED STATES","US","USA"
"905","720861-99999","CROSBY MUNI",48.929,-103.297,"US","ND",20180101,20180515,"UNITED STATES","US","USA"
"906","720862-99999","ROBERTSON FLD",48.753,-98.393,"US","ND",20101118,20130430,"UNITED STATES","US","USA"
"907","720863-99999","TIOGA MUNI",48.381,-102.898,"US","ND",20180102,20180322,"UNITED STATES","US","USA"
"908","720865-99999","HUTSON FLD",48.405,-97.371,"US","ND",20180101,20180515,"UNITED STATES","US","USA"
